Initial Region Name,Initial Region URL,Crag URL,Region Name,Latitude,Longitude
Catalu침a,https://www.thecrag.com/en/climbing/spain/area/1842437106,https://www.thecrag.com/en/climbing/spain/vall-dolerdola,Vall' d'Olerdola,41.30481842174,1.70513377004
Catalu침a,https://www.thecrag.com/en/climbing/spain/area/1842437106,https://www.thecrag.com/en/climbing/spain/barcelona-area/area/242458272,La Facu,41.2860918996,1.70214922856
Catalu침a,https://www.thecrag.com/en/climbing/spain/area/1842437106,https://www.thecrag.com/en/climbing/spain/castelldefels,Castelldefels,41.27564738981,1.9250289658
Catalu침a,https://www.thecrag.com/en/climbing/spain/area/1842437106,https://www.thecrag.com/en/climbing/spain/barcelona-area/area/242458218,Subirats,41.4162302262,1.8139010615
Catalu침a,https://www.thecrag.com/en/climbing/spain/area/1842437106,https://www.thecrag.com/en/climbing/spain/gelida,Gelida,41.42773719026,1.87368936845
Catalu침a,https://www.thecrag.com/en/climbing/spain/area/1842437106,https://www.thecrag.com/en/climbing/spain/cadira-del-bisbe,Tei,41.50318112599,2.33296788669
Catalu침a,https://www.thecrag.com/en/climbing/spain/area/1842437106,https://www.thecrag.com/en/climbing/spain/barcelona-area/area/1007621847,Roques de l'Ignasi,41.51108845298,2.33407216741
Catalu침a,https://www.thecrag.com/en/climbing/spain/area/1842437106,https://www.thecrag.com/en/climbing/spain/can-boquet,Can Boquet,41.51557142497,2.34019814341
Catalu침a,https://www.thecrag.com/en/climbing/spain/area/1842437106,https://www.thecrag.com/en/climbing/spain/banyadores,Banyadores,41.53807255,2.37834975
Catalu침a,https://www.thecrag.com/en/climbing/spain/area/1842437106,https://www.thecrag.com/en/climbing/spain/cellecs,C칠llecs,41.55718620333,2.33935824235
Catalu침a,https://www.thecrag.com/en/climbing/spain/area/1842437106,https://www.thecrag.com/en/climbing/spain/barcelona-area/area/7071113190,Bauma de Can Sol,41.59830844119,1.75150659838
Catalu침a,https://www.thecrag.com/en/climbing/spain/area/1842437106,https://www.thecrag.com/en/climbing/spain/montserrat,Montserrat,41.59292085,1.8230383
Catalu침a,https://www.thecrag.com/en/climbing/spain/area/1842437106,https://www.thecrag.com/en/climbing/spain/sant-llorenc-de-munt,Sant Llorenc de Munt,41.65611913356,1.98597069756
Catalu침a,https://www.thecrag.com/en/climbing/spain/area/1842437106,https://www.thecrag.com/en/climbing/spain/barcelona-area/area/4013813130,Castellar del Vall칟s,41.64052270763,2.07919437817
Catalu침a,https://www.thecrag.com/en/climbing/spain/area/1842437106,https://www.thecrag.com/en/climbing/spain/moia,Moi,41.7970808826,2.07436690939
Catalu침a,https://www.thecrag.com/en/climbing/spain/area/1842437106,https://www.thecrag.com/en/climbing/spain/creu-de-castellar,Collsuspina,41.81964770115,2.1924193873
Catalu침a,https://www.thecrag.com/en/climbing/spain/area/1842437106,https://www.thecrag.com/en/climbing/spain/barcelona-area/area/4376102253,Taradell,41.8650717,2.30858695
Catalu침a,https://www.thecrag.com/en/climbing/spain/area/1842437106,https://www.thecrag.com/en/climbing/spain/savassona,Savassona,41.95976237751,2.33921439069
Catalu침a,https://www.thecrag.com/en/climbing/spain/area/1842437106,https://www.thecrag.com/en/climbing/spain/barcelona-area/area/4721557257,Fussimanya,41.96869790041,2.34931153765
Catalu침a,https://www.thecrag.com/en/climbing/spain/area/1842437106,https://www.thecrag.com/en/climbing/spain/barcelona-area/area/8410994340,Castell de Montj칲ic,41.99381679955,2.83203548272
Catalu침a,https://www.thecrag.com/en/climbing/spain/area/1842437106,https://www.thecrag.com/en/climbing/spain/barcelona-area/solius,Solius,41.80725570072,2.95494179036
Catalu침a,https://www.thecrag.com/en/climbing/spain/area/1842437106,https://www.thecrag.com/en/climbing/spain/barcelona-area/santa-brigida,Santa Brigida,42.02164931529,2.61157059034
Catalu침a,https://www.thecrag.com/en/climbing/spain/area/1842437106,https://www.thecrag.com/en/climbing/spain/barcelona-area/area/347804847,Grau dels Matxos,41.75306617309,2.23214789101
Catalu침a,https://www.thecrag.com/en/climbing/spain/area/1842437106,https://www.thecrag.com/en/climbing/spain/barcelona-area/area/8015961567,El Sunyer,41.76239415607,2.23444507391
Catalu침a,https://www.thecrag.com/en/climbing/spain/area/1842437106,https://www.thecrag.com/en/climbing/spain/barcelona-area/area/7385580789,La Soleia,41.7497491807,2.24827163327
Catalu침a,https://www.thecrag.com/en/climbing/spain/area/1842437106,https://www.thecrag.com/en/climbing/spain/barcelona-area/area/6891524721,Figuero,41.73112153333,2.24949506667
Catalu침a,https://www.thecrag.com/en/climbing/spain/area/1842437106,https://www.thecrag.com/en/climbing/spain/barcelona-area/area/348273093,Roda de Ter,41.96816778145,2.31305252825
Catalu침a,https://www.thecrag.com/en/climbing/spain/area/1842437106,https://www.thecrag.com/en/climbing/spain/barcelona-area/area/431776080,Santa Coloma de Farners,41.85860902238,2.64644732067
Catalu침a,https://www.thecrag.com/en/climbing/spain/area/1842437106,https://www.thecrag.com/en/climbing/spain/barcelona-area/area/431776134,Sant Feliu de Gu칤xols,41.78196245,2.99962045
Catalu침a,https://www.thecrag.com/en/climbing/spain/area/1842437106,https://www.thecrag.com/en/climbing/spain/barcelona-area/area/431776188,Esqueis del B많is,41.86040267154,2.58827213807
Catalu침a,https://www.thecrag.com/en/climbing/spain/area/1842437106,https://www.thecrag.com/en/climbing/spain/barcelona-area/area/431776242,Roques del Rei,41.88467963215,2.56576283333
Catalu침a,https://www.thecrag.com/en/climbing/spain/area/1842437106,https://www.thecrag.com/en/climbing/spain/barcelona-area/area/431776296,Cabrerola,41.93484163769,2.47689229556
Catalu침a,https://www.thecrag.com/en/climbing/spain/area/1842437106,https://www.thecrag.com/en/climbing/spain/barcelona-area/area/4279886961,Calella de mar,41.60746126097,2.643497116
Catalu침a,https://www.thecrag.com/en/climbing/spain/area/1842437106,https://www.thecrag.com/en/climbing/spain/barcelona-area/area/713433348,Costa Brava,41.73200856343,2.9507351635
Catalu침a,https://www.thecrag.com/en/climbing/spain/area/1842437106,https://www.thecrag.com/en/climbing/spain/barcelona-area/area/800816805,El Papiol,41.4387783065,2.01597547394
Catalu침a,https://www.thecrag.com/en/climbing/spain/area/1842437106,https://www.thecrag.com/en/climbing/spain/barcelona-area/area/1400805420,Llafranc,41.89352089021,3.20343870911
Catalu침a,https://www.thecrag.com/en/climbing/spain/area/1842437106,https://www.thecrag.com/en/climbing/spain/barcelona-area/area/1706220834,Garraf,41.2498576,1.8931878
Catalu침a,https://www.thecrag.com/en/climbing/spain/area/1842437106,https://www.thecrag.com/en/climbing/spain/barcelona-area/area/2129814915,Els sumidors 游뛂,41.28410580069,1.77184974372
Catalu침a,https://www.thecrag.com/en/climbing/spain/area/1842437106,https://www.thecrag.com/en/climbing/spain/barcelona-area/area/2129834175,Penyes de can Marcer,41.26945222385,1.80941493576
Catalu침a,https://www.thecrag.com/en/climbing/spain/area/1842437106,https://www.thecrag.com/en/climbing/spain/barcelona-area/area/2803403151,penya del moro,41.34890152685,1.9431078719
Catalu침a,https://www.thecrag.com/en/climbing/spain/area/1842437106,https://www.thecrag.com/en/climbing/spain/barcelona-area/area/2805469029,roca de casablanca,41.41331824607,1.83441359338
Catalu침a,https://www.thecrag.com/en/climbing/spain/area/1842437106,https://www.thecrag.com/en/climbing/spain/barcelona-area/area/2806201551,la talaia,41.24622042404,1.66459700314
Catalu침a,https://www.thecrag.com/en/climbing/spain/area/1842437106,https://www.thecrag.com/en/climbing/spain/barcelona-area/area/2817567555,torrelletes,41.27310182979,1.64876134024
Catalu침a,https://www.thecrag.com/en/climbing/spain/area/1842437106,https://www.thecrag.com/en/climbing/spain/barcelona-area/area/2819571741,La Graiera,41.22383764024,1.5753596425
Catalu침a,https://www.thecrag.com/en/climbing/spain/area/1842437106,https://www.thecrag.com/en/climbing/spain/barcelona-area/area/2819614959,Penya Aguilera - Penyes Blanques,41.2086111,1.49580945
Catalu침a,https://www.thecrag.com/en/climbing/spain/area/1842437106,https://www.thecrag.com/en/climbing/spain/barcelona-area/area/2839615659,roques d'en barrusques,41.44890435046,1.60735941359
Catalu침a,https://www.thecrag.com/en/climbing/spain/area/1842437106,https://www.thecrag.com/en/climbing/spain/barcelona-area/area/2839838961,coll de la barraca,41.44206757196,1.58404470937
Catalu침a,https://www.thecrag.com/en/climbing/spain/area/1842437106,https://www.thecrag.com/en/climbing/spain/barcelona-area/area/2843351532,el castellot,41.33737099509,1.57745793608
Catalu침a,https://www.thecrag.com/en/climbing/spain/area/1842437106,https://www.thecrag.com/en/climbing/spain/barcelona-area/area/2860076268,santsuies,41.31688517824,1.49779446332
Catalu침a,https://www.thecrag.com/en/climbing/spain/area/1842437106,https://www.thecrag.com/en/climbing/spain/barcelona-area/area/2863569180,montmell,41.33651452368,1.47105570887
Catalu침a,https://www.thecrag.com/en/climbing/spain/area/1842437106,https://www.thecrag.com/en/climbing/spain/barcelona-area/area/2863684521,olesa,41.57580989689,1.88647480544
Catalu침a,https://www.thecrag.com/en/climbing/spain/area/1842437106,https://www.thecrag.com/en/climbing/spain/barcelona-area/area/2866944402,serra de rubi칩,41.56604765863,1.87595020967
Catalu침a,https://www.thecrag.com/en/climbing/spain/area/1842437106,https://www.thecrag.com/en/climbing/spain/barcelona-area/area/2885741610,el cairat,41.57125223519,1.86505106595
Catalu침a,https://www.thecrag.com/en/climbing/spain/area/1842437106,https://www.thecrag.com/en/climbing/spain/barcelona-area/area/2888084559,tossa de montbui,41.55607346012,1.58061779522
Catalu침a,https://www.thecrag.com/en/climbing/spain/area/1842437106,https://www.thecrag.com/en/climbing/spain/barcelona-area/area/2890602651,els mollons,41.57025946274,1.68345865125
Catalu침a,https://www.thecrag.com/en/climbing/spain/area/1842437106,https://www.thecrag.com/en/climbing/spain/barcelona-area/area/2890604514,mediona,41.47647954678,1.63518684352
Catalu침a,https://www.thecrag.com/en/climbing/spain/area/1842437106,https://www.thecrag.com/en/climbing/spain/barcelona-area/area/329804664,Tossal Rod칩,41.57634583418,1.86439052743
Catalu침a,https://www.thecrag.com/en/climbing/spain/area/1842437106,https://www.thecrag.com/en/climbing/spain/barcelona-area/area/9612948030,Calonge,41.84830825155,3.05957671108
Catalu침a,https://www.thecrag.com/en/climbing/spain/area/1842437106,https://www.thecrag.com/en/climbing/spain/rocca-blanca-amposta,Roca Blanca,40.61170508783,0.53532928701
Catalu침a,https://www.thecrag.com/en/climbing/spain/area/1842437106,https://www.thecrag.com/en/climbing/spain/montsianell,Montsianell,40.68302304257,0.55556801737
Catalu침a,https://www.thecrag.com/en/climbing/spain/area/1842437106,https://www.thecrag.com/en/climbing/spain/raco-des-capellans,Raco des Capellans,40.65777271215,0.39482017525
Catalu침a,https://www.thecrag.com/en/climbing/spain/area/1842437106,https://www.thecrag.com/en/climbing/spain/torres-roges-la-senia,Torres Roges - La Senia,40.66171700428,0.23824061005
Catalu침a,https://www.thecrag.com/en/climbing/spain/area/1842437106,https://www.thecrag.com/en/climbing/spain/estrets-del-riu,Els ports,40.87429788672,0.3111669338
Catalu침a,https://www.thecrag.com/en/climbing/spain/area/1842437106,https://www.thecrag.com/en/climbing/spain/costa-daurada/area/589381374,Santa Brbara,40.95830281724,0.33834205246
Catalu침a,https://www.thecrag.com/en/climbing/spain/area/1842437106,https://www.thecrag.com/en/climbing/spain/costa-daurada/area/589386612,roques d'en Benet,41.05415715,0.78101995
Catalu침a,https://www.thecrag.com/en/climbing/spain/area/1842437106,https://www.thecrag.com/en/climbing/spain/horata-de-saint-joan,Horta de Sant Joan,40.93295190129,0.37291448823
Catalu침a,https://www.thecrag.com/en/climbing/spain/area/1842437106,https://www.thecrag.com/en/climbing/spain/tivissa,Tivissa,41.03633562707,0.72121050337
Catalu침a,https://www.thecrag.com/en/climbing/spain/area/1842437106,https://www.thecrag.com/en/climbing/spain/llaveria,Llaveria,41.075686,0.84603025
Catalu침a,https://www.thecrag.com/en/climbing/spain/area/1842437106,https://www.thecrag.com/en/climbing/spain/pradell-de-la-teixeta,Pradell de la Teixeta,41.15698106597,0.87665681789
Catalu침a,https://www.thecrag.com/en/climbing/spain/area/1842437106,https://www.thecrag.com/en/climbing/spain/costa-daurada/area/2774193882,Cabac칠s,41.2535526,0.73007295
Catalu침a,https://www.thecrag.com/en/climbing/spain/area/1842437106,https://www.thecrag.com/en/climbing/spain/montsant,Montsant,41.2672799223,0.81495032366
Catalu침a,https://www.thecrag.com/en/climbing/spain/area/1842437106,https://www.thecrag.com/en/climbing/spain/arboli,Arboli,41.23765075,0.94598
Catalu침a,https://www.thecrag.com/en/climbing/spain/area/1842437106,https://www.thecrag.com/en/climbing/spain/la-mussara,La Mussara,41.2466186,1.0494379
Catalu침a,https://www.thecrag.com/en/climbing/spain/area/1842437106,https://www.thecrag.com/en/climbing/spain/la-riba,La Riba,41.3181691,1.17320875
Catalu침a,https://www.thecrag.com/en/climbing/spain/area/1842437106,https://www.thecrag.com/en/climbing/spain/mont-ral,Mont-ral,41.28267319167,1.10182049941
Catalu침a,https://www.thecrag.com/en/climbing/spain/area/1842437106,https://www.thecrag.com/en/climbing/spain/siurana,Siurana,41.26177121863,0.93865087299
Catalu침a,https://www.thecrag.com/en/climbing/spain/area/1842437106,https://www.thecrag.com/en/climbing/spain/margalef,Margalef,41.28810275,0.7675799
Catalu침a,https://www.thecrag.com/en/climbing/spain/area/1842437106,https://www.thecrag.com/en/climbing/spain/collugons,Cogullons,41.34024493819,1.0970141354
Catalu침a,https://www.thecrag.com/en/climbing/spain/area/1842437106,https://www.thecrag.com/en/climbing/spain/vilanova-de-prades,Vilanova de Prades,41.35138799804,0.9490510689
Catalu침a,https://www.thecrag.com/en/climbing/spain/area/1842437106,https://www.thecrag.com/en/climbing/spain/costa-daurada/area/410745486,Masriudoms,41.03023583556,0.87895528806
Catalu침a,https://www.thecrag.com/en/climbing/spain/area/1842437106,https://www.thecrag.com/en/climbing/spain/costa-daurada/area/1239663042,El Penitent,41.36627085,1.1322655
Catalu침a,https://www.thecrag.com/en/climbing/spain/area/1842437106,https://www.thecrag.com/en/climbing/spain/costa-daurada/area/6084496350,Cingle de Cac맊,40.62919595,0.56731255
Catalu침a,https://www.thecrag.com/en/climbing/spain/area/1842437106,https://www.thecrag.com/en/climbing/spain/costa-daurada/area/6623069457,Pinell de Brai,41.04292317744,0.48672374084
Catalu침a,https://www.thecrag.com/en/climbing/spain/area/1842437106,https://www.thecrag.com/en/climbing/spain/costa-daurada/area/6705211095,Roques del Masmut,40.74880600429,0.06602585776
Catalu침a,https://www.thecrag.com/en/climbing/spain/area/1842437106,https://www.thecrag.com/en/climbing/spain/costa-daurada/area/7932135312,Els Munts,41.13354492906,1.3984085877
Catalu침a,https://www.thecrag.com/en/climbing/spain/area/1842437106,https://www.thecrag.com/en/climbing/spain/cavallers,Cavallers,42.5880487,0.8529969
Catalu침a,https://www.thecrag.com/en/climbing/spain/area/1842437106,https://www.thecrag.com/en/climbing/spain/travessani,Travessani,42.6325904883,0.88177562755
Catalu침a,https://www.thecrag.com/en/climbing/spain/area/1842437106,https://www.thecrag.com/en/climbing/spain/restanca,Restanca,42.63119015887,0.84083251178
Catalu침a,https://www.thecrag.com/en/climbing/spain/area/1842437106,https://www.thecrag.com/en/climbing/spain/area/502528710,Valle de Boi,42.56150552529,1.05545961015
Catalu침a,https://www.thecrag.com/en/climbing/spain/area/1842437106,https://www.thecrag.com/en/climbing/spain/area/598775679,vall de mulleres,42.62147622212,0.74265092719
Catalu침a,https://www.thecrag.com/en/climbing/spain/area/1842437106,https://www.thecrag.com/en/climbing/spain/vall-de-besiberri,Vall de Besiberri,42.6281933308,0.77845951364
Catalu침a,https://www.thecrag.com/en/climbing/spain/area/1842437106,https://www.thecrag.com/en/climbing/spain/colomers,Colomers,42.61006352664,0.92916981246
Catalu침a,https://www.thecrag.com/en/climbing/spain/area/1842437106,https://www.thecrag.com/en/climbing/spain/saboredo,Saboredo,42.61575839095,0.96727050199
Catalu침a,https://www.thecrag.com/en/climbing/spain/area/1842437106,https://www.thecrag.com/en/climbing/spain/amitges,Amitges,42.58802258839,1.02632148083
Catalu침a,https://www.thecrag.com/en/climbing/spain/area/1842437106,https://www.thecrag.com/en/climbing/spain/saint-maurici,Sant Maurici,42.57313214235,1.00345808674
Catalu침a,https://www.thecrag.com/en/climbing/spain/area/1842437106,https://www.thecrag.com/en/climbing/spain/josep-maria-blanc,Josep Maria Blanc,42.53875889824,1.03969241704
Catalu침a,https://www.thecrag.com/en/climbing/spain/area/1842437106,https://www.thecrag.com/en/climbing/spain/colomina,Colomina,42.52329018469,1.00796882437
Catalu침a,https://www.thecrag.com/en/climbing/spain/area/1842437106,https://www.thecrag.com/en/climbing/spain/viuet,Viuet,42.44721290697,0.71485262728
Catalu침a,https://www.thecrag.com/en/climbing/spain/area/1842437106,https://www.thecrag.com/en/climbing/spain/area/603269673,sarra칟ra,42.64847749046,0.77444400297
Catalu침a,https://www.thecrag.com/en/climbing/spain/area/1842437106,https://www.thecrag.com/en/climbing/spain/area/603276204,la forcanada,42.66331950836,0.70767050877
Catalu침a,https://www.thecrag.com/en/climbing/spain/area/1842437106,https://www.thecrag.com/en/climbing/spain/area/603701208,vall de Gerber,42.62585254072,0.99599871652
Catalu침a,https://www.thecrag.com/en/climbing/spain/area/1842437106,https://www.thecrag.com/en/climbing/spain/area/603709650,pla de la font,42.60841820363,1.04660708251
Catalu침a,https://www.thecrag.com/en/climbing/spain/area/1842437106,https://www.thecrag.com/en/climbing/spain/area/760128375,Q칲enca-Moredo,42.70155502606,1.05355580865
Catalu침a,https://www.thecrag.com/en/climbing/spain/area/1842437106,https://www.thecrag.com/en/climbing/spain/area/760133145,Certascan,42.70450167501,1.29870268004
Catalu침a,https://www.thecrag.com/en/climbing/spain/area/1842437106,https://www.thecrag.com/en/climbing/spain/area/5082170496,Espot,42.57499182888,1.08987656521
Catalu침a,https://www.thecrag.com/en/climbing/spain/area/1842437106,https://www.thecrag.com/en/climbing/spain/area/5741974200,El Pont de Suert,42.42515148087,0.76448892153
Catalu침a,https://www.thecrag.com/en/climbing/spain/area/1842437106,https://www.thecrag.com/en/climbing/spain/area/8076806382,Arties,42.70518919017,0.87060240552
Comunidad Valenciana,https://www.thecrag.com/en/climbing/spain/area/1846162401,https://www.thecrag.com/en/climbing/spain/castellon/area/6058653147,Alcora,40.09593615445,-0.2150292396
Comunidad Valenciana,https://www.thecrag.com/en/climbing/spain/area/1846162401,https://www.thecrag.com/en/climbing/spain/castellon/area/782524281,Altura,39.82969952237,-0.56936378227
Comunidad Valenciana,https://www.thecrag.com/en/climbing/spain/area/1846162401,https://www.thecrag.com/en/climbing/spain/castellon/area/2934623910,Araya,40.08640469499,-0.29222159058
Comunidad Valenciana,https://www.thecrag.com/en/climbing/spain/area/1846162401,https://www.thecrag.com/en/climbing/spain/castellon/area/9442869483,Argelita,40.0575607,-0.34036245
Comunidad Valenciana,https://www.thecrag.com/en/climbing/spain/area/1846162401,https://www.thecrag.com/en/climbing/spain/castellon/area/2525102856,Atzeneta del Maestrat,40.19572744684,-0.2098261763
Comunidad Valenciana,https://www.thecrag.com/en/climbing/spain/area/1846162401,https://www.thecrag.com/en/climbing/spain/castellon/area/2956186164,Ay칩dar,40.0061265,-0.39767005
Comunidad Valenciana,https://www.thecrag.com/en/climbing/spain/area/1846162401,https://www.thecrag.com/en/climbing/spain/castellon/area/1460997588,Betxi,39.92830277921,-0.24342728464
Comunidad Valenciana,https://www.thecrag.com/en/climbing/spain/area/1846162401,https://www.thecrag.com/en/climbing/spain/castellon/area/9497266290,La Botalria,40.04811673078,-0.07984198614
Comunidad Valenciana,https://www.thecrag.com/en/climbing/spain/area/1846162401,https://www.thecrag.com/en/climbing/spain/castellon/area/260449173,Borriol,40.0496759,-0.02019355
Comunidad Valenciana,https://www.thecrag.com/en/climbing/spain/area/1846162401,https://www.thecrag.com/en/climbing/spain/castellon/area/4622025858,La Cantera,40.03722755,-0.00282
Comunidad Valenciana,https://www.thecrag.com/en/climbing/spain/area/1846162401,https://www.thecrag.com/en/climbing/spain/castellon/area/9055549041,Castellet,40.02446867277,-0.05584881639
Comunidad Valenciana,https://www.thecrag.com/en/climbing/spain/area/1846162401,https://www.thecrag.com/en/climbing/spain/castellon/area/5500817667,Cervera del Maestre,40.45591856665,0.27712394564
Comunidad Valenciana,https://www.thecrag.com/en/climbing/spain/area/1846162401,https://www.thecrag.com/en/climbing/spain/castellon/area/1450866186,Cucala,40.03208283397,-0.10487610355
Comunidad Valenciana,https://www.thecrag.com/en/climbing/spain/area/1846162401,https://www.thecrag.com/en/climbing/spain/castellon/area/3845984433,Culla,40.32285666473,-0.19651295465
Comunidad Valenciana,https://www.thecrag.com/en/climbing/spain/area/1846162401,https://www.thecrag.com/en/climbing/spain/castellon/area/2720635671,La Devesa,40.65172594282,-0.17490846264
Comunidad Valenciana,https://www.thecrag.com/en/climbing/spain/area/1846162401,https://www.thecrag.com/en/climbing/spain/castellon/area/8596951251,Figueroles,40.13769267141,-0.21402044182
Comunidad Valenciana,https://www.thecrag.com/en/climbing/spain/area/1846162401,https://www.thecrag.com/en/climbing/spain/castellon/area/814510449,Grellera,40.65848806191,-0.18338166667
Comunidad Valenciana,https://www.thecrag.com/en/climbing/spain/area/1846162401,https://www.thecrag.com/en/climbing/spain/jerica,J칠rica,39.90831268799,-0.57918012631
Comunidad Valenciana,https://www.thecrag.com/en/climbing/spain/area/1846162401,https://www.thecrag.com/en/climbing/spain/castellon/area/6098557500,Lucena del Cid,40.120757,-0.294214
Comunidad Valenciana,https://www.thecrag.com/en/climbing/spain/area/1846162401,https://www.thecrag.com/en/climbing/spain/castellon/area/2541264936,Mas de Domingo,40.27977017411,-0.04029036241
Comunidad Valenciana,https://www.thecrag.com/en/climbing/spain/area/1846162401,https://www.thecrag.com/en/climbing/spain/montanejos,Montanejos,40.07839832195,-0.54472849878
Comunidad Valenciana,https://www.thecrag.com/en/climbing/spain/area/1846162401,https://www.thecrag.com/en/climbing/spain/castellon/area/801255774,Monzona,40.12148679414,-0.60927293095
Comunidad Valenciana,https://www.thecrag.com/en/climbing/spain/area/1846162401,https://www.thecrag.com/en/climbing/spain/castellon/area/2407858719,Murs,40.2899208085,0.16951053012
Comunidad Valenciana,https://www.thecrag.com/en/climbing/spain/area/1846162401,https://www.thecrag.com/en/climbing/spain/castellon/area/3846072153,Oropesa del Mar,40.08799146662,0.11270937702
Comunidad Valenciana,https://www.thecrag.com/en/climbing/spain/area/1846162401,https://www.thecrag.com/en/climbing/spain/castellon/area/594948081,Pe침agolosa,40.22334778637,-0.3481510243
Comunidad Valenciana,https://www.thecrag.com/en/climbing/spain/area/1846162401,https://www.thecrag.com/en/climbing/spain/castellon/area/2953951056,Pe침as Altas Torrechiva,40.06605182402,-0.40130799217
Comunidad Valenciana,https://www.thecrag.com/en/climbing/spain/area/1846162401,https://www.thecrag.com/en/climbing/spain/castellon/area/5892930909,Pe침칤scola,40.3404059,0.3861483
Comunidad Valenciana,https://www.thecrag.com/en/climbing/spain/area/1846162401,https://www.thecrag.com/en/climbing/spain/castellon/area/9015131289,La Rambla,40.11504374643,-0.14341696337
Comunidad Valenciana,https://www.thecrag.com/en/climbing/spain/area/1846162401,https://www.thecrag.com/en/climbing/spain/ribesalbes,Ribesalbes,40.00632617498,-0.28247218849
Comunidad Valenciana,https://www.thecrag.com/en/climbing/spain/area/1846162401,https://www.thecrag.com/en/climbing/spain/castellon/area/2941506921,La Sarratella,40.32108212748,0.03237051309
Comunidad Valenciana,https://www.thecrag.com/en/climbing/spain/area/1846162401,https://www.thecrag.com/en/climbing/spain/castellon/area/6042584169,Serra d'en Galceran,40.2813839,-0.0314168
Comunidad Valenciana,https://www.thecrag.com/en/climbing/spain/area/1846162401,https://www.thecrag.com/en/climbing/spain/castellon/area/2941493277,Tales,39.94663342446,-0.31267818075
Comunidad Valenciana,https://www.thecrag.com/en/climbing/spain/area/1846162401,https://www.thecrag.com/en/climbing/spain/castellon/area/4781199819,Teresa,39.89758348664,-0.66452888834
Comunidad Valenciana,https://www.thecrag.com/en/climbing/spain/area/1846162401,https://www.thecrag.com/en/climbing/spain/castellon/area/8453615613,Torre Endom칠nech,40.2721394,0.04426355
Comunidad Valenciana,https://www.thecrag.com/en/climbing/spain/area/1846162401,https://www.thecrag.com/en/climbing/spain/castellon/area/9015149988,Torreblanca,40.23338106364,0.17018048965
Comunidad Valenciana,https://www.thecrag.com/en/climbing/spain/area/1846162401,https://www.thecrag.com/en/climbing/spain/castellon/area/2585190912,Vallat,40.02768625393,-0.33190321225
Comunidad Valenciana,https://www.thecrag.com/en/climbing/spain/area/1846162401,https://www.thecrag.com/en/climbing/spain/castellon/area/4436551707,Vilafranca,40.44761117161,-0.26465985806
Comunidad Valenciana,https://www.thecrag.com/en/climbing/spain/area/1846162401,https://www.thecrag.com/en/climbing/spain/castellon/area/6063460560,Vilavella,39.86133669592,-0.18680082301
Comunidad Valenciana,https://www.thecrag.com/en/climbing/spain/area/1846162401,https://www.thecrag.com/en/climbing/spain/castellon/area/6049431393,Villahermosa del R칤o,40.1991302,-0.4167517
Comunidad Valenciana,https://www.thecrag.com/en/climbing/spain/area/1846162401,https://www.thecrag.com/en/climbing/spain/castellon/area/814481898,Xert,40.52751614355,0.16976258479
Comunidad Valenciana,https://www.thecrag.com/en/climbing/spain/area/1846162401,https://www.thecrag.com/en/climbing/spain/valencia/area/1447656381,Alcublas,39.80920398638,-0.72157137249
Comunidad Valenciana,https://www.thecrag.com/en/climbing/spain/area/1846162401,https://www.thecrag.com/en/climbing/spain/valencia/area/1428366324,Alg칤mia d'Alfara,39.75391892878,-0.37534611471
Comunidad Valenciana,https://www.thecrag.com/en/climbing/spain/area/1846162401,https://www.thecrag.com/en/climbing/spain/valencia/area/4179649881,Alzira,39.13650369939,-0.36691817922
Comunidad Valenciana,https://www.thecrag.com/en/climbing/spain/area/1846162401,https://www.thecrag.com/en/climbing/spain/valencia/area/6064498554,Andilla,39.85690735095,-0.79054610437
Comunidad Valenciana,https://www.thecrag.com/en/climbing/spain/area/1846162401,https://www.thecrag.com/en/climbing/spain/valencia/area/3320678493,Antella,39.11234926317,-0.6195893627
Comunidad Valenciana,https://www.thecrag.com/en/climbing/spain/area/1846162401,https://www.thecrag.com/en/climbing/spain/valencia/area/3681424599,Barx,39.01709296906,-0.29004724377
Comunidad Valenciana,https://www.thecrag.com/en/climbing/spain/area/1846162401,https://www.thecrag.com/en/climbing/spain/bellus,Bellus-Alboy,38.95864934342,-0.49192567896
Comunidad Valenciana,https://www.thecrag.com/en/climbing/spain/area/1846162401,https://www.thecrag.com/en/climbing/spain/valencia/area/5790984633,Benicadell,38.83265107836,-0.4009551892
Comunidad Valenciana,https://www.thecrag.com/en/climbing/spain/area/1846162401,https://www.thecrag.com/en/climbing/spain/valencia/area/1427301387,Bu침ol,39.43323645,-0.82760675
Comunidad Valenciana,https://www.thecrag.com/en/climbing/spain/area/1846162401,https://www.thecrag.com/en/climbing/spain/valencia/area/3927226812,Calicanto,39.4293515,-0.5917751
Comunidad Valenciana,https://www.thecrag.com/en/climbing/spain/area/1846162401,https://www.thecrag.com/en/climbing/spain/valencia/area/3433215279,Calles,39.69906618224,-0.99827287489
Comunidad Valenciana,https://www.thecrag.com/en/climbing/spain/area/1846162401,https://www.thecrag.com/en/climbing/spain/valencia/area/3385416810,Chelva,39.77575425757,-0.98933159119
Comunidad Valenciana,https://www.thecrag.com/en/climbing/spain/area/1846162401,https://www.thecrag.com/en/climbing/spain/valencia/area/2953904172,Chera,39.59607602513,-0.99097192814
Comunidad Valenciana,https://www.thecrag.com/en/climbing/spain/area/1846162401,https://www.thecrag.com/en/climbing/spain/valencia/area/1447606131,Cheste,39.53638972103,-0.76464166143
Comunidad Valenciana,https://www.thecrag.com/en/climbing/spain/area/1846162401,https://www.thecrag.com/en/climbing/spain/valencia/area/3391727955,Chiva,39.52648670403,-0.83557550232
Comunidad Valenciana,https://www.thecrag.com/en/climbing/spain/area/1846162401,https://www.thecrag.com/en/climbing/spain/chulilla,Chulilla,39.63935135,-0.89263575
Comunidad Valenciana,https://www.thecrag.com/en/climbing/spain/area/1846162401,https://www.thecrag.com/en/climbing/spain/valencia/area/4203836268,Corbera,39.15460814561,-0.36607690634
Comunidad Valenciana,https://www.thecrag.com/en/climbing/spain/area/1846162401,https://www.thecrag.com/en/climbing/spain/valencia/area/6087151323,Cova Dels Coloms,39.05022831307,-0.27545440318
Comunidad Valenciana,https://www.thecrag.com/en/climbing/spain/area/1846162401,https://www.thecrag.com/en/climbing/spain/valencia/area/3433338351,Cuchillares de Contreras,39.5132101,-1.5012662
Comunidad Valenciana,https://www.thecrag.com/en/climbing/spain/area/1846162401,https://www.thecrag.com/en/climbing/spain/valencia/area/3385384056,Cullera,39.18353930995,-0.21833548311
Comunidad Valenciana,https://www.thecrag.com/en/climbing/spain/area/1846162401,https://www.thecrag.com/en/climbing/spain/valencia/area/1450739823,Cortes de Pall치s,39.24473473766,-0.9330156838
Comunidad Valenciana,https://www.thecrag.com/en/climbing/spain/area/1846162401,https://www.thecrag.com/en/climbing/spain/valencia/area/5827378380,Dos Aguas,39.27162087777,-0.7031805954
Comunidad Valenciana,https://www.thecrag.com/en/climbing/spain/area/1846162401,https://www.thecrag.com/en/climbing/spain/valencia/area/6549785013,Embalse de Contreras,39.5471761546,-1.49245988352
Comunidad Valenciana,https://www.thecrag.com/en/climbing/spain/area/1846162401,https://www.thecrag.com/en/climbing/spain/valencia/area/5502898752,Enguera,38.9643621,-0.77225735
Comunidad Valenciana,https://www.thecrag.com/en/climbing/spain/area/1846162401,https://www.thecrag.com/en/climbing/spain/valencia/area/5418619350,La Font de la Figuera,38.82730290261,-0.91020099912
Comunidad Valenciana,https://www.thecrag.com/en/climbing/spain/area/1846162401,https://www.thecrag.com/en/climbing/spain/valencia/area/5502636351,Fontanars dels Alforins,38.76889777481,-0.80377797539
Comunidad Valenciana,https://www.thecrag.com/en/climbing/spain/area/1846162401,https://www.thecrag.com/en/climbing/spain/gandia,Gandia,38.9762244639,-0.21511877299
Comunidad Valenciana,https://www.thecrag.com/en/climbing/spain/area/1846162401,https://www.thecrag.com/en/climbing/spain/valencia/gestalgar,Gestalgar,39.5983257,-0.84228115
Comunidad Valenciana,https://www.thecrag.com/en/climbing/spain/area/1846162401,https://www.thecrag.com/en/climbing/spain/valencia/area/1450817469,Jarafuel,39.14471881053,-1.06845539433
Comunidad Valenciana,https://www.thecrag.com/en/climbing/spain/area/1846162401,https://www.thecrag.com/en/climbing/spain/valencia/area/4411923771,Llaur칤,39.12382907716,-0.34057520029
Comunidad Valenciana,https://www.thecrag.com/en/climbing/spain/area/1846162401,https://www.thecrag.com/en/climbing/spain/valencia/area/4225719585,Loriguilla,39.6746913,-0.925179
Comunidad Valenciana,https://www.thecrag.com/en/climbing/spain/area/1846162401,https://www.thecrag.com/en/climbing/spain/valencia/area/3827529057,Moixent,38.87312140034,-0.75328437401
Comunidad Valenciana,https://www.thecrag.com/en/climbing/spain/area/1846162401,https://www.thecrag.com/en/climbing/spain/valencia/area/4215341982,Montesa,38.93735676078,-0.64826808051
Comunidad Valenciana,https://www.thecrag.com/en/climbing/spain/area/1846162401,https://www.thecrag.com/en/climbing/spain/valencia/area/4233107706,Montserrat,39.38821166409,-0.57396607513
Comunidad Valenciana,https://www.thecrag.com/en/climbing/spain/area/1846162401,https://www.thecrag.com/en/climbing/spain/barrance-de-lavern,Ontinyent,38.79363572896,-0.60622554605
Comunidad Valenciana,https://www.thecrag.com/en/climbing/spain/area/1846162401,https://www.thecrag.com/en/climbing/spain/valencia/area/9683909805,La Pedrera,39.53812628499,-0.42653851074
Comunidad Valenciana,https://www.thecrag.com/en/climbing/spain/area/1846162401,https://www.thecrag.com/en/climbing/spain/valencia/area/4574466051,Picanya,39.43364833333,-0.43182962893
Comunidad Valenciana,https://www.thecrag.com/en/climbing/spain/area/1846162401,https://www.thecrag.com/en/climbing/spain/valencia/area/3856906446,Pinet,38.97723391268,-0.33549433324
Comunidad Valenciana,https://www.thecrag.com/en/climbing/spain/area/1846162401,https://www.thecrag.com/en/climbing/spain/penas-de-guaita,Puzol,39.65149983171,-0.32569307652
Comunidad Valenciana,https://www.thecrag.com/en/climbing/spain/area/1846162401,https://www.thecrag.com/en/climbing/spain/valencia/area/5502640479,Quesa,39.0892435,-0.78022155
Comunidad Valenciana,https://www.thecrag.com/en/climbing/spain/area/1846162401,https://www.thecrag.com/en/climbing/spain/valencia/area/5662912629,Real de Montroi,39.32553701587,-0.58240154415
Comunidad Valenciana,https://www.thecrag.com/en/climbing/spain/area/1846162401,https://www.thecrag.com/en/climbing/spain/valencia/area/1450613250,Requena,39.46069667292,-1.06224841698
Comunidad Valenciana,https://www.thecrag.com/en/climbing/spain/area/1846162401,https://www.thecrag.com/en/climbing/spain/valencia/area/3683066346,R칩tova,38.93395330248,-0.27055869728
Comunidad Valenciana,https://www.thecrag.com/en/climbing/spain/area/1846162401,https://www.thecrag.com/en/climbing/spain/salem,Salem,38.85375265,-0.3713601
Comunidad Valenciana,https://www.thecrag.com/en/climbing/spain/area/1846162401,https://www.thecrag.com/en/climbing/spain/valencia/area/3286014210,Serra Calderona,39.71420525387,-0.4480904976
Comunidad Valenciana,https://www.thecrag.com/en/climbing/spain/area/1846162401,https://www.thecrag.com/en/climbing/spain/valencia/area/5251066080,Sot de Chera,39.61800426491,-0.90656286428
Comunidad Valenciana,https://www.thecrag.com/en/climbing/spain/area/1846162401,https://www.thecrag.com/en/climbing/spain/valencia/area/1450768662,Teresa de Cofrentes,39.1273280732,-0.96896078825
Comunidad Valenciana,https://www.thecrag.com/en/climbing/spain/area/1846162401,https://www.thecrag.com/en/climbing/spain/valencia/area/4574480604,Torrent,39.42841495,-0.46695735
Comunidad Valenciana,https://www.thecrag.com/en/climbing/spain/area/1846162401,https://www.thecrag.com/en/climbing/spain/valencia/area/3694850799,Utiel,39.603683,-1.1625688
Comunidad Valenciana,https://www.thecrag.com/en/climbing/spain/area/1846162401,https://www.thecrag.com/en/climbing/spain/valencia/area/2912893242,Valencia,39.45924765,-0.37194285
Comunidad Valenciana,https://www.thecrag.com/en/climbing/spain/area/1846162401,https://www.thecrag.com/en/climbing/spain/valencia/area/1460712174,Vallada,38.89766177846,-0.67257289684
Comunidad Valenciana,https://www.thecrag.com/en/climbing/spain/area/1846162401,https://www.thecrag.com/en/climbing/spain/valencia/area/3020974173,Vilamarxant,39.56303956597,-0.63170002347
Comunidad Valenciana,https://www.thecrag.com/en/climbing/spain/area/1846162401,https://www.thecrag.com/en/climbing/spain/valencia/area/3378833268,Villar del Arzobispo,39.75365215,-0.81506395
Comunidad Valenciana,https://www.thecrag.com/en/climbing/spain/area/1846162401,https://www.thecrag.com/en/climbing/spain/valencia/area/1460651787,X치tiva,38.98268528119,-0.52019341096
Comunidad Valenciana,https://www.thecrag.com/en/climbing/spain/area/1846162401,https://www.thecrag.com/en/climbing/spain/valencia/area/6098509827,Xeraco,39.03733421379,-0.2484299808
Comunidad Valenciana,https://www.thecrag.com/en/climbing/spain/area/1846162401,https://www.thecrag.com/en/climbing/spain/valencia/area/3429621372,Xeresa,39.0016122655,-0.23189313981
Comunidad Valenciana,https://www.thecrag.com/en/climbing/spain/area/1846162401,https://www.thecrag.com/en/climbing/spain/valencia/area/4213341174,Zarra,39.09314368438,-1.09093846855
Comunidad Valenciana,https://www.thecrag.com/en/climbing/spain/area/1846162401,https://www.thecrag.com/en/climbing/spain/valencia/area/9666403665,Simat de la Valldigna,39.03370882317,-0.30859566064
Comunidad Valenciana,https://www.thecrag.com/en/climbing/spain/area/1846162401,https://www.thecrag.com/en/climbing/spain/costa-blanca/area/9025626771,45 Grados,38.81624115,-0.21217045
Comunidad Valenciana,https://www.thecrag.com/en/climbing/spain/area/1846162401,https://www.thecrag.com/en/climbing/spain/costa-blanca/area/9052493493,Adsubia,38.85288177298,-0.16838320247
Comunidad Valenciana,https://www.thecrag.com/en/climbing/spain/area/1846162401,https://www.thecrag.com/en/climbing/spain/costa-blanca/area/4287268323,Agres,38.79600427806,-0.49932899499
Comunidad Valenciana,https://www.thecrag.com/en/climbing/spain/area/1846162401,https://www.thecrag.com/en/climbing/spain/costa-blanca/area/1214969460,Aixort,38.70650379049,-0.17481290862
Comunidad Valenciana,https://www.thecrag.com/en/climbing/spain/area/1846162401,https://www.thecrag.com/en/climbing/spain/alcalali,Alcalali,38.75602947988,-0.05209261849
Comunidad Valenciana,https://www.thecrag.com/en/climbing/spain/area/1846162401,https://www.thecrag.com/en/climbing/spain/alcoy,Alcoy,38.70538978155,-0.4781897788
Comunidad Valenciana,https://www.thecrag.com/en/climbing/spain/area/1846162401,https://www.thecrag.com/en/climbing/spain/costa-blanca/area/5844925470,Baladar,38.67392043983,0.10285181508
Comunidad Valenciana,https://www.thecrag.com/en/climbing/spain/area/1846162401,https://www.thecrag.com/en/climbing/spain/costa-blanca/area/2953930644,Barranc de Sanxet,38.6800447052,-0.71049948284
Comunidad Valenciana,https://www.thecrag.com/en/climbing/spain/area/1846162401,https://www.thecrag.com/en/climbing/spain/costa-blanca/area/3903599310,Benial칤,38.8125698,-0.23882175
Comunidad Valenciana,https://www.thecrag.com/en/climbing/spain/area/1846162401,https://www.thecrag.com/en/climbing/spain/costa-blanca/area/4616849592,Benifato,38.6577298,-0.243846
Comunidad Valenciana,https://www.thecrag.com/en/climbing/spain/area/1846162401,https://www.thecrag.com/en/climbing/spain/bernia,Bernia,38.65992027878,-0.04474270173
Comunidad Valenciana,https://www.thecrag.com/en/climbing/spain/area/1846162401,https://www.thecrag.com/en/climbing/spain/costa-blanca/area/2731612938,Busot,38.50219663241,-0.40433846667
Comunidad Valenciana,https://www.thecrag.com/en/climbing/spain/area/1846162401,https://www.thecrag.com/en/climbing/spain/cabezon-de-oro,Cabezon de Oro,38.52760350013,-0.40488331542
Comunidad Valenciana,https://www.thecrag.com/en/climbing/spain/area/1846162401,https://www.thecrag.com/en/climbing/spain/cabreras,Cabreras,38.54053564803,-0.86244841215
Comunidad Valenciana,https://www.thecrag.com/en/climbing/spain/area/1846162401,https://www.thecrag.com/en/climbing/spain/costa-blanca/area/4408586931,Cala Les Rotes,38.822048334,0.15993903324
Comunidad Valenciana,https://www.thecrag.com/en/climbing/spain/area/1846162401,https://www.thecrag.com/en/climbing/spain/costa-blanca/area/406352238,Castellet De Calp,38.63809268399,0.00815070947
Comunidad Valenciana,https://www.thecrag.com/en/climbing/spain/area/1846162401,https://www.thecrag.com/en/climbing/spain/costa-blanca/area/2457169119,Castellets,38.59837225,-0.22935105
Comunidad Valenciana,https://www.thecrag.com/en/climbing/spain/area/1846162401,https://www.thecrag.com/en/climbing/spain/costa-blanca/area/9024676185,El Cepellar,38.64399583333,-0.00515445497
Comunidad Valenciana,https://www.thecrag.com/en/climbing/spain/area/1846162401,https://www.thecrag.com/en/climbing/spain/costa-blanca/area/7819328823,Cocentaina,38.74398353054,-0.46346423422
Comunidad Valenciana,https://www.thecrag.com/en/climbing/spain/area/1846162401,https://www.thecrag.com/en/climbing/spain/costa-blanca/area/1460982678,Covatelles,38.75303333308,0.05722914454
Comunidad Valenciana,https://www.thecrag.com/en/climbing/spain/area/1846162401,https://www.thecrag.com/en/climbing/spain/costa-blanca/area/2107867314,Coves Roges,38.77267625964,0.07763101698
Comunidad Valenciana,https://www.thecrag.com/en/climbing/spain/area/1846162401,https://www.thecrag.com/en/climbing/spain/costa-blanca/area/4496149272,Crevillent,38.27478145,-0.8274157
Comunidad Valenciana,https://www.thecrag.com/en/climbing/spain/area/1846162401,https://www.thecrag.com/en/climbing/spain/costa-blanca/area/3742519542,Cumbre del Sol,38.71013173925,0.16984553133
Comunidad Valenciana,https://www.thecrag.com/en/climbing/spain/area/1846162401,https://www.thecrag.com/en/climbing/spain/costa-blanca/area/4409286087,Elche,38.31117037092,-0.70008685611
Comunidad Valenciana,https://www.thecrag.com/en/climbing/spain/area/1846162401,https://www.thecrag.com/en/climbing/spain/marin,Elda / Petrer,38.49572105838,-0.82866503847
Comunidad Valenciana,https://www.thecrag.com/en/climbing/spain/area/1846162401,https://www.thecrag.com/en/climbing/spain/forada,Forad치,38.50114358536,-0.67325990112
Comunidad Valenciana,https://www.thecrag.com/en/climbing/spain/area/1846162401,https://www.thecrag.com/en/climbing/spain/costa-blanca/area/4370196204,Gata de Gorgos,38.75418532936,-0.14991608917
Comunidad Valenciana,https://www.thecrag.com/en/climbing/spain/area/1846162401,https://www.thecrag.com/en/climbing/spain/costa-blanca/area/3742475019,Granadella,38.72421383997,0.19543222061
Comunidad Valenciana,https://www.thecrag.com/en/climbing/spain/area/1846162401,https://www.thecrag.com/en/climbing/spain/el-flare-guadalest,Guadalest & Abdet,38.68279005978,-0.22586247008
Comunidad Valenciana,https://www.thecrag.com/en/climbing/spain/area/1846162401,https://www.thecrag.com/en/climbing/spain/costa-blanca/area/2731977354,J치vea,38.728314341,0.21569181386
Comunidad Valenciana,https://www.thecrag.com/en/climbing/spain/area/1846162401,https://www.thecrag.com/en/climbing/spain/penya-roja,Ll칤ber,38.74933975,0.00457715
Comunidad Valenciana,https://www.thecrag.com/en/climbing/spain/area/1846162401,https://www.thecrag.com/en/climbing/spain/costa-blanca/area/405229719,Los Pinos,38.69099659955,0.00164760409
Comunidad Valenciana,https://www.thecrag.com/en/climbing/spain/area/1846162401,https://www.thecrag.com/en/climbing/spain/mascarat-gorge,Mascarat Gorge,38.6369965676,0.00542352053
Comunidad Valenciana,https://www.thecrag.com/en/climbing/spain/area/1846162401,https://www.thecrag.com/en/climbing/spain/costa-blanca/area/7837164816,Millena,38.74064805136,-0.37102970646
Comunidad Valenciana,https://www.thecrag.com/en/climbing/spain/area/1846162401,https://www.thecrag.com/en/climbing/spain/jalon-valley,Murla,38.75904885615,-0.05556762737
Comunidad Valenciana,https://www.thecrag.com/en/climbing/spain/area/1846162401,https://www.thecrag.com/en/climbing/spain/costa-blanca/area/7819781553,Muro d'Alcoi,38.78755460591,-0.46683621852
Comunidad Valenciana,https://www.thecrag.com/en/climbing/spain/area/1846162401,https://www.thecrag.com/en/climbing/spain/olta,Olta,38.65588675007,0.02165234211
Comunidad Valenciana,https://www.thecrag.com/en/climbing/spain/area/1846162401,https://www.thecrag.com/en/climbing/spain/costa-blanca/area/6358652436,Onil,38.6359931,-0.67464345
Comunidad Valenciana,https://www.thecrag.com/en/climbing/spain/area/1846162401,https://www.thecrag.com/en/climbing/spain/orihuela,Orihuela,38.09809390036,-0.9743231331
Comunidad Valenciana,https://www.thecrag.com/en/climbing/spain/area/1846162401,https://www.thecrag.com/en/climbing/spain/costa-blanca/area/2725014903,Pedreguer,38.77609880409,0.02979134976
Comunidad Valenciana,https://www.thecrag.com/en/climbing/spain/area/1846162401,https://www.thecrag.com/en/climbing/spain/costa-blanca/area/692789736,Pego,38.82964029895,-0.13188481638
Comunidad Valenciana,https://www.thecrag.com/en/climbing/spain/area/1846162401,https://www.thecrag.com/en/climbing/spain/costa-blanca/area/5602218255,Penya Roc,38.6364786,-0.18331735
Comunidad Valenciana,https://www.thecrag.com/en/climbing/spain/area/1846162401,https://www.thecrag.com/en/climbing/spain/costa-blanca/area/7254081276,Pe침a del Corb,38.50061034969,-0.76158131846
Comunidad Valenciana,https://www.thecrag.com/en/climbing/spain/area/1846162401,https://www.thecrag.com/en/climbing/spain/penon-de-ifach,Pe침칩n de Ifach,38.63458040086,0.07685589744
Comunidad Valenciana,https://www.thecrag.com/en/climbing/spain/area/1846162401,https://www.thecrag.com/en/climbing/spain/costa-blanca/area/6878211123,Placas del Eco,38.62099965,-0.17968185
Comunidad Valenciana,https://www.thecrag.com/en/climbing/spain/area/1846162401,https://www.thecrag.com/en/climbing/spain/ponoig,Ponoig,38.61237300104,-0.15807850627
Comunidad Valenciana,https://www.thecrag.com/en/climbing/spain/area/1846162401,https://www.thecrag.com/en/climbing/spain/puig-campana,Puig Campana,38.59428236809,-0.20272853488
Comunidad Valenciana,https://www.thecrag.com/en/climbing/spain/area/1846162401,https://www.thecrag.com/en/climbing/spain/costa-blanca/area/2730420774,Rac칩 de Cort칠s,38.54370660816,-0.2882291844
Comunidad Valenciana,https://www.thecrag.com/en/climbing/spain/area/1846162401,https://www.thecrag.com/en/climbing/spain/reconco,Reconco,38.61601552324,-0.71454723758
Comunidad Valenciana,https://www.thecrag.com/en/climbing/spain/area/1846162401,https://www.thecrag.com/en/climbing/spain/costa-blanca/area/5743660488,Redov치n,38.12172872036,-0.90357384081
Comunidad Valenciana,https://www.thecrag.com/en/climbing/spain/area/1846162401,https://www.thecrag.com/en/climbing/spain/costa-blanca/area/1029784887,Rinc칩n Bello,38.47958773333,-0.69662236213
Comunidad Valenciana,https://www.thecrag.com/en/climbing/spain/area/1846162401,https://www.thecrag.com/en/climbing/spain/salinas,Salinas,38.51049717959,-0.94016534196
Comunidad Valenciana,https://www.thecrag.com/en/climbing/spain/area/1846162401,https://www.thecrag.com/en/climbing/spain/sella,Sella,38.61714785786,-0.24593874675
Comunidad Valenciana,https://www.thecrag.com/en/climbing/spain/area/1846162401,https://www.thecrag.com/en/climbing/spain/costa-blanca/area/5662174617,Serra de Segaria,38.83851844874,-0.0173841034
Comunidad Valenciana,https://www.thecrag.com/en/climbing/spain/area/1846162401,https://www.thecrag.com/en/climbing/spain/sierra-de-enmedio,Sierra de Enmedio,38.3188595,-0.83371385
Comunidad Valenciana,https://www.thecrag.com/en/climbing/spain/area/1846162401,https://www.thecrag.com/en/climbing/spain/sierra-de-toix,Sierra de Toix,38.6327697,0.01947135
Comunidad Valenciana,https://www.thecrag.com/en/climbing/spain/area/1846162401,https://www.thecrag.com/en/climbing/spain/costa-blanca/area/9025562532,La Solana,38.75737125,-0.00055015
Comunidad Valenciana,https://www.thecrag.com/en/climbing/spain/area/1846162401,https://www.thecrag.com/en/climbing/spain/echo-valley,Valle de Guadar (Echo Valley),38.6296519799,-0.15409033831
Comunidad Valenciana,https://www.thecrag.com/en/climbing/spain/area/1846162401,https://www.thecrag.com/en/climbing/spain/costa-blanca/area/5506341270,V칤a ferrata Xorret de Cat칤,38.52381435984,-0.68323749777
Comunidad Valenciana,https://www.thecrag.com/en/climbing/spain/area/1846162401,https://www.thecrag.com/en/climbing/spain/pena-rubia,Villena,38.60454821795,-0.79659925771
Comunidad Valenciana,https://www.thecrag.com/en/climbing/spain/area/1846162401,https://www.thecrag.com/en/climbing/spain/costa-blanca/area/4227327609,Xixona,38.54657725327,-0.50899513771
Murcia,https://www.thecrag.com/en/climbing/spain/area/1846222632,https://www.thecrag.com/en/climbing/spain/almorchon,Almorch칩n,38.21411128101,-1.5447521345
Murcia,https://www.thecrag.com/en/climbing/spain/area/1846222632,https://www.thecrag.com/en/climbing/spain/area/7269419562,Alumbres,37.59937926793,-0.9257771672
Murcia,https://www.thecrag.com/en/climbing/spain/area/1846222632,https://www.thecrag.com/en/climbing/spain/area/8147953686,Barranco del Marqu칠s,38.43539700353,-1.36270028441
Murcia,https://www.thecrag.com/en/climbing/spain/area/1846222632,https://www.thecrag.com/en/climbing/spain/area/3163086408,Benizar,38.2644608,-1.98534895
Murcia,https://www.thecrag.com/en/climbing/spain/area/1846222632,https://www.thecrag.com/en/climbing/spain/pico-del-aguila,Cabezo de la Fuente,37.6039567482,-0.77464529855
Murcia,https://www.thecrag.com/en/climbing/spain/area/1846222632,https://www.thecrag.com/en/climbing/spain/area/8091827157,Cabezo Gordo,37.79833627315,-0.90069869811
Murcia,https://www.thecrag.com/en/climbing/spain/area/1846222632,https://www.thecrag.com/en/climbing/spain/area/8092823229,Cabo de Palos,37.63498669585,-0.68950335686
Murcia,https://www.thecrag.com/en/climbing/spain/area/1846222632,https://www.thecrag.com/en/climbing/spain/area/8172441348,Cantalar,37.55896243325,-1.12482037409
Murcia,https://www.thecrag.com/en/climbing/spain/area/1846222632,https://www.thecrag.com/en/climbing/spain/area/2732444238,Canteras de El Valle,37.92033585,-1.14057695
Murcia,https://www.thecrag.com/en/climbing/spain/area/1846222632,https://www.thecrag.com/en/climbing/spain/area/8101642524,Cartagena,37.60167732053,-1.00355673856
Murcia,https://www.thecrag.com/en/climbing/spain/area/1846222632,https://www.thecrag.com/en/climbing/spain/area/7862882880,Castillo de la Asomada,37.90144436491,-1.15185317821
Murcia,https://www.thecrag.com/en/climbing/spain/area/1846222632,https://www.thecrag.com/en/climbing/spain/area/6674211474,Castillo de los Garres,37.95014484426,-1.08914002774
Murcia,https://www.thecrag.com/en/climbing/spain/area/1846222632,https://www.thecrag.com/en/climbing/spain/area/8116412421,Cedacero,37.590881,-1.15776405
Murcia,https://www.thecrag.com/en/climbing/spain/area/1846222632,https://www.thecrag.com/en/climbing/spain/area/5234757069,Cieza,38.2232701,-1.43147275
Murcia,https://www.thecrag.com/en/climbing/spain/area/1846222632,https://www.thecrag.com/en/climbing/spain/area/8097537207,Cola del Caballo,37.57883567782,-0.86800012998
Murcia,https://www.thecrag.com/en/climbing/spain/area/1846222632,https://www.thecrag.com/en/climbing/spain/el-buey,El Buey,38.49012253111,-1.28095137159
Murcia,https://www.thecrag.com/en/climbing/spain/area/1846222632,https://www.thecrag.com/en/climbing/spain/area/7140799218,El Corqu칠,38.23116498701,-1.15178237794
Murcia,https://www.thecrag.com/en/climbing/spain/area/1846222632,https://www.thecrag.com/en/climbing/spain/area/6667248171,El Port칰s,37.58450128488,-1.07301949131
Murcia,https://www.thecrag.com/en/climbing/spain/area/1846222632,https://www.thecrag.com/en/climbing/spain/area/8182139181,El Pulgoso,37.78546881738,-1.5475985597
Murcia,https://www.thecrag.com/en/climbing/spain/area/1846222632,https://www.thecrag.com/en/climbing/spain/area/8172524946,Faro de Cabo Ti침oso,37.53476181937,-1.11048893478
Murcia,https://www.thecrag.com/en/climbing/spain/area/1846222632,https://www.thecrag.com/en/climbing/spain/area/4676164392,Frontal de Los Garres,37.9492716,-1.0924849
Murcia,https://www.thecrag.com/en/climbing/spain/area/1846222632,https://www.thecrag.com/en/climbing/spain/area/9053297040,Torre de La Azohia,37.54925379539,-1.17361595462
Murcia,https://www.thecrag.com/en/climbing/spain/area/1846222632,https://www.thecrag.com/en/climbing/spain/area/2732439417,La Azohia,37.56531,-1.17194
Murcia,https://www.thecrag.com/en/climbing/spain/area/1846222632,https://www.thecrag.com/en/climbing/spain/area/8166799773,La Cueva del Pino,38.57403473662,-1.26789376667
Murcia,https://www.thecrag.com/en/climbing/spain/area/1846222632,https://www.thecrag.com/en/climbing/spain/la-graja,La Graja,38.53244745372,-1.33036105993
Murcia,https://www.thecrag.com/en/climbing/spain/area/1846222632,https://www.thecrag.com/en/climbing/spain/la-magdalena,La Magdalena,38.60748739232,-1.19225551464
Murcia,https://www.thecrag.com/en/climbing/spain/area/1846222632,https://www.thecrag.com/en/climbing/spain/area/8101821204,La Muela de Cabo Ti침oso,37.57356721047,-1.09711670697
Murcia,https://www.thecrag.com/en/climbing/spain/area/1846222632,https://www.thecrag.com/en/climbing/spain/la-panocha,La Panocha,37.94304239741,-1.08780312047
Murcia,https://www.thecrag.com/en/climbing/spain/area/1846222632,https://www.thecrag.com/en/climbing/spain/levia,Leiva,37.88283353265,-1.54271031798
Murcia,https://www.thecrag.com/en/climbing/spain/area/1846222632,https://www.thecrag.com/en/climbing/spain/area/8098743510,Los Amarillos,37.57917376197,-0.85955624835
Murcia,https://www.thecrag.com/en/climbing/spain/area/1846222632,https://www.thecrag.com/en/climbing/spain/los-lages,Los Lages,37.9472851098,-1.09720534606
Murcia,https://www.thecrag.com/en/climbing/spain/area/1846222632,https://www.thecrag.com/en/climbing/spain/morron-de-espuna-y-agujas,Morron de Espu침a,37.8626884,-1.57231645
Murcia,https://www.thecrag.com/en/climbing/spain/area/1846222632,https://www.thecrag.com/en/climbing/spain/area/1035026718,Mula,38.07305496665,-1.48777738877
Murcia,https://www.thecrag.com/en/climbing/spain/area/1846222632,https://www.thecrag.com/en/climbing/spain/area/8108656350,Pared de La C치rcel,37.60845785905,-1.12382129643
Murcia,https://www.thecrag.com/en/climbing/spain/area/1846222632,https://www.thecrag.com/en/climbing/spain/pared-de-siscar,Pared de Siscar,38.07245487775,-1.03191212835
Murcia,https://www.thecrag.com/en/climbing/spain/area/1846222632,https://www.thecrag.com/en/climbing/spain/area/8115701118,Pe침as Blancas,37.60211178366,-1.15720054668
Murcia,https://www.thecrag.com/en/climbing/spain/area/1846222632,https://www.thecrag.com/en/climbing/spain/area/8174174613,Pe침a Rubia,38.0850824216,-1.80668311559
Murcia,https://www.thecrag.com/en/climbing/spain/area/1846222632,https://www.thecrag.com/en/climbing/spain/area/8104952058,Ricote,38.14877638183,-1.39684872161
Castilla la Mancha,https://www.thecrag.com/en/climbing/spain/area/1846242474,https://www.thecrag.com/en/climbing/spain/ayna,Ayna,38.55578871066,-2.0794483721
Castilla la Mancha,https://www.thecrag.com/en/climbing/spain/area/1846242474,https://www.thecrag.com/en/climbing/spain/area/5431124775,Caudete,38.73685030667,-1.018648512
Castilla la Mancha,https://www.thecrag.com/en/climbing/spain/area/1846242474,https://www.thecrag.com/en/climbing/spain/area/7767694302,Chinchilla de Monte-Arag칩n,38.92957604459,-1.72130103557
Castilla la Mancha,https://www.thecrag.com/en/climbing/spain/area/1846242474,https://www.thecrag.com/en/climbing/spain/area/6790933713,Nerpio,38.15292718564,-2.29756778075
Castilla la Mancha,https://www.thecrag.com/en/climbing/spain/area/1846242474,https://www.thecrag.com/en/climbing/spain/el-minero,El Minero,38.67968639,-4.11387498594
Castilla la Mancha,https://www.thecrag.com/en/climbing/spain/area/1846242474,https://www.thecrag.com/en/climbing/spain/fuente-el-freso,Fuente el Freso,39.22274607396,-3.77438070246
Castilla la Mancha,https://www.thecrag.com/en/climbing/spain/area/1846242474,https://www.thecrag.com/en/climbing/spain/moral,Moral de Calatrava,38.82995789868,-3.58089222767
Castilla la Mancha,https://www.thecrag.com/en/climbing/spain/area/1846242474,https://www.thecrag.com/en/climbing/spain/pantano-de-penarroya,Pantano de Penarroya,39.06026754309,-3.00644046649
Castilla la Mancha,https://www.thecrag.com/en/climbing/spain/area/1846242474,https://www.thecrag.com/en/climbing/spain/area/8654928303,Cuenca,40.08791367651,-2.12144761981
Castilla la Mancha,https://www.thecrag.com/en/climbing/spain/area/1846242474,https://www.thecrag.com/en/climbing/spain/buendia,Buendia,40.37327575612,-2.79400884738
Castilla la Mancha,https://www.thecrag.com/en/climbing/spain/area/1846242474,https://www.thecrag.com/en/climbing/spain/hoz-del-rio-gritos-valeria,Hoz del Rio Gritos,39.7873412,-2.14968225
Castilla la Mancha,https://www.thecrag.com/en/climbing/spain/area/1846242474,https://www.thecrag.com/en/climbing/spain/area/3033859005,Las Callejuelas,39.81881075581,-1.2918312354
Castilla la Mancha,https://www.thecrag.com/en/climbing/spain/area/1846242474,https://www.thecrag.com/en/climbing/spain/area/5647219140,Priego,40.4427256545,-2.27210802748
Castilla la Mancha,https://www.thecrag.com/en/climbing/spain/area/1846242474,https://www.thecrag.com/en/climbing/spain/cuidad-entacada,Cuidad Encantada,40.21372349208,-2.01815490226
Castilla la Mancha,https://www.thecrag.com/en/climbing/spain/area/1846242474,https://www.thecrag.com/en/climbing/spain/area/7014535899,Segobriga,39.88496606667,-2.7965006
Castilla la Mancha,https://www.thecrag.com/en/climbing/spain/area/1846242474,https://www.thecrag.com/en/climbing/spain/valdecabras,Valdecabras 游뛂,40.15456303868,-2.05738844912
Castilla la Mancha,https://www.thecrag.com/en/climbing/spain/area/1846242474,https://www.thecrag.com/en/climbing/spain/barranco-de-la-viana,Barranco de la Viana,41.0425526,-2.749783
Castilla la Mancha,https://www.thecrag.com/en/climbing/spain/area/1846242474,https://www.thecrag.com/en/climbing/spain/entrepenas,Entrepe침as,40.49139389635,-2.755032949
Castilla la Mancha,https://www.thecrag.com/en/climbing/spain/area/1846242474,https://www.thecrag.com/en/climbing/spain/area/1856736579,Fin del Mundo,40.33530069315,-2.81323260564
Castilla la Mancha,https://www.thecrag.com/en/climbing/spain/area/1846242474,https://www.thecrag.com/en/climbing/spain/area/3800670042,Pozo Verde,40.98166545,-1.67991335
Castilla la Mancha,https://www.thecrag.com/en/climbing/spain/area/1846242474,https://www.thecrag.com/en/climbing/spain/area/6581695722,Santamera,41.12788292724,-2.77385906937
Castilla la Mancha,https://www.thecrag.com/en/climbing/spain/area/1846242474,https://www.thecrag.com/en/climbing/spain/barranco-de-la-hoz,Barranco de la Hoz,40.81857150901,-2.02001992194
Castilla la Mancha,https://www.thecrag.com/en/climbing/spain/area/1846242474,https://www.thecrag.com/en/climbing/spain/pequena-escocia,Pequena Escocia,41.11571146264,-1.96824596706
Castilla la Mancha,https://www.thecrag.com/en/climbing/spain/area/1846242474,https://www.thecrag.com/en/climbing/spain/area/9871446327,Nnnnn,40.9572977474,-2.88556858995
Castilla la Mancha,https://www.thecrag.com/en/climbing/spain/area/1846242474,https://www.thecrag.com/en/climbing/spain/toledo,Toledo,39.8499206,-4.02179215
Castilla la Mancha,https://www.thecrag.com/en/climbing/spain/area/1846242474,https://www.thecrag.com/en/climbing/spain/castello-de-bayuela,Castillo de Bayuela,40.10462814633,-4.68470789082
Castilla la Mancha,https://www.thecrag.com/en/climbing/spain/area/1846242474,https://www.thecrag.com/en/climbing/spain/area/8554606188,Mora - Pe침as Negras,39.67986499131,-3.72941976992
Extremadura,https://www.thecrag.com/en/climbing/spain/area/1846641165,https://www.thecrag.com/en/climbing/spain/area/1846882515,Alange,38.78600715035,-6.26016087502
Extremadura,https://www.thecrag.com/en/climbing/spain/area/1846641165,https://www.thecrag.com/en/climbing/spain/area/1852142298,Puerto Roque,39.34925999564,-7.29698878088
Extremadura,https://www.thecrag.com/en/climbing/spain/area/1846641165,https://www.thecrag.com/en/climbing/spain/area/5826376626,Las monjas,40.19005162465,-5.81757493288
Extremadura,https://www.thecrag.com/en/climbing/spain/area/1846641165,https://www.thecrag.com/en/climbing/spain/area/6187792134,Risco de San Blas,39.22181357744,-7.01636325772
Extremadura,https://www.thecrag.com/en/climbing/spain/area/1846641165,https://www.thecrag.com/en/climbing/spain/area/6235768521,Valcorchero,39.21180065,-6.1167531
Extremadura,https://www.thecrag.com/en/climbing/spain/area/1846641165,https://www.thecrag.com/en/climbing/spain/area/6235776453,El Cerro,40.12281870612,-5.95081801078
Extremadura,https://www.thecrag.com/en/climbing/spain/area/1846641165,https://www.thecrag.com/en/climbing/spain/el-castellar,El Castellar,38.41911898977,-6.44569080214
Extremadura,https://www.thecrag.com/en/climbing/spain/area/1846641165,https://www.thecrag.com/en/climbing/spain/puerto-pena,Puerto Pe침a,39.19923245161,-5.21403074852
La Rioja,https://www.thecrag.com/en/climbing/spain/area/1846642104,https://www.thecrag.com/en/climbing/spain/agujeros-rioja,Los Agujeros,42.62096463775,-2.89518564432
La Rioja,https://www.thecrag.com/en/climbing/spain/area/1846642104,https://www.thecrag.com/en/climbing/spain/nieva-de-cameros,Nieva de Cameros,42.22225195706,-2.6627854896
La Rioja,https://www.thecrag.com/en/climbing/spain/area/1846642104,https://www.thecrag.com/en/climbing/spain/clavijo,Clavijo,42.35009960365,-2.4275248049
La Rioja,https://www.thecrag.com/en/climbing/spain/area/1846642104,https://www.thecrag.com/en/climbing/spain/jubera,Jubera,42.30206300214,-2.29619121581
La Rioja,https://www.thecrag.com/en/climbing/spain/area/1846642104,https://www.thecrag.com/en/climbing/spain/arnedillo,Arnedillo,42.21340885,-2.23013495
La Rioja,https://www.thecrag.com/en/climbing/spain/area/1846642104,https://www.thecrag.com/en/climbing/spain/isasa,Pe침a Isasa,42.16138833093,-2.12269971953
La Rioja,https://www.thecrag.com/en/climbing/spain/area/1846642104,https://www.thecrag.com/en/climbing/spain/autol,Autol,42.21529936318,-2.00570280656
La Rioja,https://www.thecrag.com/en/climbing/spain/area/1846642104,https://www.thecrag.com/en/climbing/spain/area/1849949205,Anguiano,42.25921442692,-2.76760126503
La Rioja,https://www.thecrag.com/en/climbing/spain/area/1846642104,https://www.thecrag.com/en/climbing/spain/area/1850135049,Ezcaray,42.33267494811,-3.00731201201
La Rioja,https://www.thecrag.com/en/climbing/spain/area/1846642104,https://www.thecrag.com/en/climbing/spain/area/1850140845,Nalda,42.31467345,-2.47692705
Navarra,https://www.thecrag.com/en/climbing/spain/area/1846647399,https://www.thecrag.com/en/climbing/spain/san-fausto,San Fausto,42.7071189,-2.05918635
Navarra,https://www.thecrag.com/en/climbing/spain/area/1846647399,https://www.thecrag.com/en/climbing/spain/penartea-carrascal,Pe침artea,42.66616407853,-1.64533808153
Navarra,https://www.thecrag.com/en/climbing/spain/area/1846647399,https://www.thecrag.com/en/climbing/spain/etxauri,Etxauri,42.7988254,-1.81543825
Navarra,https://www.thecrag.com/en/climbing/spain/area/1846647399,https://www.thecrag.com/en/climbing/spain/don-hermanas,Dos Hermanas - Biaizpe (Irurtzun),42.92794985,-1.82427625
Navarra,https://www.thecrag.com/en/climbing/spain/area/1846647399,https://www.thecrag.com/en/climbing/spain/area/1714044531,Itoitz,42.8443515,-1.3667842
Navarra,https://www.thecrag.com/en/climbing/spain/area/1846647399,https://www.thecrag.com/en/climbing/spain/area/7527382515,Kopako Harri,43.27735326996,-1.76352643281
Navarra,https://www.thecrag.com/en/climbing/spain/area/1846647399,https://www.thecrag.com/en/climbing/spain/area/5149375830,Larraona - Aranaratxe - Eulate,42.78278612043,-2.23799854883
Navarra,https://www.thecrag.com/en/climbing/spain/area/1846647399,https://www.thecrag.com/en/climbing/spain/area/6479244468,Larraun,42.94257480923,-1.82660347865
Navarra,https://www.thecrag.com/en/climbing/spain/area/1846647399,https://www.thecrag.com/en/climbing/spain/area/5168803632,Liskar,42.62517775,-1.27647475
Navarra,https://www.thecrag.com/en/climbing/spain/area/1846647399,https://www.thecrag.com/en/climbing/spain/area/8453701704,Napari (Napal),42.70939866242,-1.21008601468
Navarra,https://www.thecrag.com/en/climbing/spain/area/1846647399,https://www.thecrag.com/en/climbing/spain/area/5313910353,Aitzondo,42.92743295183,-1.96162014218
Navarra,https://www.thecrag.com/en/climbing/spain/area/1846647399,https://www.thecrag.com/en/climbing/spain/area/6832656999,Laieneko Haitza,42.9177893,-2.15011365
Navarra,https://www.thecrag.com/en/climbing/spain/area/1846647399,https://www.thecrag.com/en/climbing/spain/area/5908111071,Ziordia,42.88092142558,-2.23749106865
Navarra,https://www.thecrag.com/en/climbing/spain/area/1846647399,https://www.thecrag.com/en/climbing/spain/area/8617938837,Bidankoze (Vid치ngoz),42.79924620904,-1.01215045796
Navarra,https://www.thecrag.com/en/climbing/spain/area/1846647399,https://www.thecrag.com/en/climbing/spain/area/8006867988,Belagua,42.95250765,-0.81871515
Navarra,https://www.thecrag.com/en/climbing/spain/area/1846647399,https://www.thecrag.com/en/climbing/spain/area/8119507896,Axkin Arrondo,43.151815,-1.68173025
Navarra,https://www.thecrag.com/en/climbing/spain/area/1846647399,https://www.thecrag.com/en/climbing/spain/area/8970194979,Untzueko Haitza,42.65736424373,-1.61526164662
Navarra,https://www.thecrag.com/en/climbing/spain/area/1846647399,https://www.thecrag.com/en/climbing/spain/area/9578500530,La Sima,42.86464732596,-1.88090848709
Andalucia,https://www.thecrag.com/en/climbing/spain/area/1846636608,https://www.thecrag.com/en/climbing/spain/area/5325883869,Bedmar La Serrezuela,37.82561574083,-3.40589668931
Andalucia,https://www.thecrag.com/en/climbing/spain/area/1846636608,https://www.thecrag.com/en/climbing/spain/area/825425493,Pegalajar,37.73851808671,-3.66088830804
Andalucia,https://www.thecrag.com/en/climbing/spain/area/1846636608,https://www.thecrag.com/en/climbing/spain/area/2288810088,Castillo de La Guardia,37.74370589728,-3.69593472133
Andalucia,https://www.thecrag.com/en/climbing/spain/area/1846636608,https://www.thecrag.com/en/climbing/spain/area/2288824173,Cerro Golondrina,37.81148706641,-3.34903056533
Andalucia,https://www.thecrag.com/en/climbing/spain/area/1846636608,https://www.thecrag.com/en/climbing/spain/area/2288824377,Cerro Zalema,37.94913965,-3.6653802
Andalucia,https://www.thecrag.com/en/climbing/spain/area/1846636608,https://www.thecrag.com/en/climbing/spain/area/2288824620,Cuevas negras,37.94913965,-3.6653802
Andalucia,https://www.thecrag.com/en/climbing/spain/area/1846636608,https://www.thecrag.com/en/climbing/spain/area/2288825571,El puntal,37.94913965,-3.6653802
Andalucia,https://www.thecrag.com/en/climbing/spain/area/1846636608,https://www.thecrag.com/en/climbing/spain/area/2288826138,El V칤tor,37.94913965,-3.6653802
Andalucia,https://www.thecrag.com/en/climbing/spain/area/1846636608,https://www.thecrag.com/en/climbing/spain/area/2288826639,La Serrezuela,37.94913965,-3.6653802
Andalucia,https://www.thecrag.com/en/climbing/spain/area/1846636608,https://www.thecrag.com/en/climbing/spain/area/2288826966,Las cimbras,37.94913965,-3.6653802
Andalucia,https://www.thecrag.com/en/climbing/spain/area/1846636608,https://www.thecrag.com/en/climbing/spain/area/2288827323,Los Cahorros,37.94913965,-3.6653802
Andalucia,https://www.thecrag.com/en/climbing/spain/area/1846636608,https://www.thecrag.com/en/climbing/spain/area/2288827653,Los Ochandos,37.94913965,-3.6653802
Andalucia,https://www.thecrag.com/en/climbing/spain/area/1846636608,https://www.thecrag.com/en/climbing/spain/area/2288828391,Mor칩n de la Frontera,37.94913965,-3.6653802
Andalucia,https://www.thecrag.com/en/climbing/spain/area/1846636608,https://www.thecrag.com/en/climbing/spain/area/2288828724,Pe침a Rubia,37.94913965,-3.6653802
Andalucia,https://www.thecrag.com/en/climbing/spain/area/1846636608,https://www.thecrag.com/en/climbing/spain/area/2288829054,Pe침as de Castro,37.94913965,-3.6653802
Andalucia,https://www.thecrag.com/en/climbing/spain/area/1846636608,https://www.thecrag.com/en/climbing/spain/area/2288829387,Santa Luc칤a,37.94913965,-3.6653802
Andalucia,https://www.thecrag.com/en/climbing/spain/area/1846636608,https://www.thecrag.com/en/climbing/spain/area/2288829663,Silent valley,37.94913965,-3.6653802
Andalucia,https://www.thecrag.com/en/climbing/spain/area/1846636608,https://www.thecrag.com/en/climbing/spain/area/2288829861,Tajo del Despe침adero,37.6499794903,-3.89907208582
Andalucia,https://www.thecrag.com/en/climbing/spain/area/1846636608,https://www.thecrag.com/en/climbing/spain/area/2288830083,Torres,37.78462063333,-3.50345157375
Andalucia,https://www.thecrag.com/en/climbing/spain/area/1846636608,https://www.thecrag.com/en/climbing/spain/area/2288830386,Valle de Abalaj칤s,37.94913965,-3.6653802
Andalucia,https://www.thecrag.com/en/climbing/spain/area/1846636608,https://www.thecrag.com/en/climbing/spain/area/2288830701,Yugoslavia,37.94913965,-3.6653802
Andalucia,https://www.thecrag.com/en/climbing/spain/area/1846636608,https://www.thecrag.com/en/climbing/spain/area/3827471979,Luque,37.56336573801,-4.28612147928
Andalucia,https://www.thecrag.com/en/climbing/spain/area/1846636608,https://www.thecrag.com/en/climbing/spain/area/826223283,Pe침칩n del 츼guila,37.99099379045,-4.52047018989
Andalucia,https://www.thecrag.com/en/climbing/spain/area/1846636608,https://www.thecrag.com/en/climbing/spain/zuheros,Zuheros,37.54026182503,-4.30914468366
Andalucia,https://www.thecrag.com/en/climbing/spain/area/1846636608,https://www.thecrag.com/en/climbing/spain/area/4677149985,Riscos del Levante,37.85414681906,-6.69468221712
Andalucia,https://www.thecrag.com/en/climbing/spain/area/1846636608,https://www.thecrag.com/en/climbing/spain/nuestra-senora-de-la-pena,Nuestra Se침ora de la Pe침a,37.6016785661,-7.20072905331
Andalucia,https://www.thecrag.com/en/climbing/spain/area/1846636608,https://www.thecrag.com/en/climbing/spain/area/4679624133,Valverde del Camino,37.55061322072,-6.82816893482
Andalucia,https://www.thecrag.com/en/climbing/spain/area/1846636608,https://www.thecrag.com/en/climbing/spain/area/7196291685,Cala침as - El Morante,37.65043349786,-6.86488419754
Andalucia,https://www.thecrag.com/en/climbing/spain/area/1846636608,https://www.thecrag.com/en/climbing/spain/benacoaz,Benaocaz,36.70229309612,-5.42675136597
Andalucia,https://www.thecrag.com/en/climbing/spain/area/1846636608,https://www.thecrag.com/en/climbing/spain/el-buejo,El Bujeo,36.06877174918,-5.51042001511
Andalucia,https://www.thecrag.com/en/climbing/spain/area/1846636608,https://www.thecrag.com/en/climbing/spain/el-castillo,El Castillo,36.32038865493,-5.43003594661
Andalucia,https://www.thecrag.com/en/climbing/spain/area/1846636608,https://www.thecrag.com/en/climbing/spain/malaga-sevilla-area/area/2584826040,Gibraltar,36.1273774,-5.34539905
Andalucia,https://www.thecrag.com/en/climbing/spain/area/1846636608,https://www.thecrag.com/en/climbing/spain/grazalema,Grazalema,36.76295925,-5.37873315
Andalucia,https://www.thecrag.com/en/climbing/spain/area/1846636608,https://www.thecrag.com/en/climbing/spain/jimena,Jimena,36.43407059097,-5.46140414459
Andalucia,https://www.thecrag.com/en/climbing/spain/area/1846636608,https://www.thecrag.com/en/climbing/spain/malaga-sevilla-area/area/5502834024,La Muela,36.9167061,-5.4018324
Andalucia,https://www.thecrag.com/en/climbing/spain/area/1846636608,https://www.thecrag.com/en/climbing/spain/malaga-sevilla-area/area/5300316111,La Pe침a,36.06894031278,-5.66575999161
Andalucia,https://www.thecrag.com/en/climbing/spain/area/1846636608,https://www.thecrag.com/en/climbing/spain/malaga-sevilla-area/area/4495689867,Olvera,36.94151394356,-5.20895211375
Andalucia,https://www.thecrag.com/en/climbing/spain/area/1846636608,https://www.thecrag.com/en/climbing/spain/malaga-sevilla-area/area/1440488997,Pe침a Arpada,36.50805198212,-5.79636388426
Andalucia,https://www.thecrag.com/en/climbing/spain/area/1846636608,https://www.thecrag.com/en/climbing/spain/malaga-sevilla-area/area/5223900228,Pe침a del Cabo de la Plata,36.1040493724,-5.82376823008
Andalucia,https://www.thecrag.com/en/climbing/spain/area/1846636608,https://www.thecrag.com/en/climbing/spain/san-bartolo,San Bartolo,36.08876961507,-5.7216455985
Andalucia,https://www.thecrag.com/en/climbing/spain/area/1846636608,https://www.thecrag.com/en/climbing/spain/malaga-sevilla-area/area/9596471850,La Alcaidesa,36.24817286273,-5.34978284599
Andalucia,https://www.thecrag.com/en/climbing/spain/area/1846636608,https://www.thecrag.com/en/climbing/spain/area/4495991286,Alfarnatejo,36.96715924318,-4.26560975676
Andalucia,https://www.thecrag.com/en/climbing/spain/area/1846636608,https://www.thecrag.com/en/climbing/spain/area/4496035158,Antigua Cantera de Torremolinos,36.62535406305,-4.52489824866
Andalucia,https://www.thecrag.com/en/climbing/spain/area/1846636608,https://www.thecrag.com/en/climbing/spain/archidona,Archidona,37.09291679776,-4.36884592063
Andalucia,https://www.thecrag.com/en/climbing/spain/area/1846636608,https://www.thecrag.com/en/climbing/spain/area/3822395043,Belmez,38.26335266496,-5.19906484274
Andalucia,https://www.thecrag.com/en/climbing/spain/area/1846636608,https://www.thecrag.com/en/climbing/spain/benahavis,Benahavis,36.51655951034,-5.04101076372
Andalucia,https://www.thecrag.com/en/climbing/spain/area/1846636608,https://www.thecrag.com/en/climbing/spain/benaojan,Benaoj치n,36.71698768614,-5.24760274421
Andalucia,https://www.thecrag.com/en/climbing/spain/area/1846636608,https://www.thecrag.com/en/climbing/spain/area/8721093681,Ca침ete,36.94872989109,-5.03735455384
Andalucia,https://www.thecrag.com/en/climbing/spain/area/1846636608,https://www.thecrag.com/en/climbing/spain/canon-de-manilva,Ca침on de Manilva,36.3937997,-5.26638075
Andalucia,https://www.thecrag.com/en/climbing/spain/area/1846636608,https://www.thecrag.com/en/climbing/spain/cartajima,Cartajima,36.64337054873,-5.15509164054
Andalucia,https://www.thecrag.com/en/climbing/spain/area/1846636608,https://www.thecrag.com/en/climbing/spain/casares,Casares,36.43970368609,-5.26837910728
Andalucia,https://www.thecrag.com/en/climbing/spain/area/1846636608,https://www.thecrag.com/en/climbing/spain/area/4316085894,Cerros del Lago,36.56037956903,-4.94394512311
Andalucia,https://www.thecrag.com/en/climbing/spain/area/1846636608,https://www.thecrag.com/en/climbing/spain/comares,Comares,36.84626796467,-4.24456350678
Andalucia,https://www.thecrag.com/en/climbing/spain/area/1846636608,https://www.thecrag.com/en/climbing/spain/area/5834016300,Cuevas del Becerro,36.87612440287,-5.04141224813
Andalucia,https://www.thecrag.com/en/climbing/spain/area/1846636608,https://www.thecrag.com/en/climbing/spain/el-chorro,El Chorro,36.93649605,-4.7357222
Andalucia,https://www.thecrag.com/en/climbing/spain/area/1846636608,https://www.thecrag.com/en/climbing/spain/area/1913153454,El Torcalito,36.72881252583,-4.39416980021
Andalucia,https://www.thecrag.com/en/climbing/spain/area/1846636608,https://www.thecrag.com/en/climbing/spain/espiel,Espiel,38.1696500702,-5.03516088125
Andalucia,https://www.thecrag.com/en/climbing/spain/area/1846636608,https://www.thecrag.com/en/climbing/spain/area/8230716438,Estepona,36.44573618568,-5.12577423019
Andalucia,https://www.thecrag.com/en/climbing/spain/area/1846636608,https://www.thecrag.com/en/climbing/spain/area/4495604559,Gaucin,36.51696862542,-5.31322918239
Andalucia,https://www.thecrag.com/en/climbing/spain/area/1846636608,https://www.thecrag.com/en/climbing/spain/la-cala,La Cala del Moral,36.71401854053,-4.31787534627
Andalucia,https://www.thecrag.com/en/climbing/spain/area/1846636608,https://www.thecrag.com/en/climbing/spain/mijas,Mijas,36.6069056169,-4.63326870473
Andalucia,https://www.thecrag.com/en/climbing/spain/area/1846636608,https://www.thecrag.com/en/climbing/spain/montjaque,Montjaque,36.73722813248,-5.24748486088
Andalucia,https://www.thecrag.com/en/climbing/spain/area/1846636608,https://www.thecrag.com/en/climbing/spain/area/7092352770,Nerja,36.75846545,-3.8642872
Andalucia,https://www.thecrag.com/en/climbing/spain/area/1846636608,https://www.thecrag.com/en/climbing/spain/ojen,Ojen,36.56156005712,-4.82697055891
Andalucia,https://www.thecrag.com/en/climbing/spain/area/1846636608,https://www.thecrag.com/en/climbing/spain/area/4495991226,Pe침칩n de R칤ogordo,36.97374865,-4.32078885
Andalucia,https://www.thecrag.com/en/climbing/spain/area/1846636608,https://www.thecrag.com/en/climbing/spain/area/1791403800,Pinares de San Anton,36.74321714933,-4.36331091984
Andalucia,https://www.thecrag.com/en/climbing/spain/area/1846636608,https://www.thecrag.com/en/climbing/spain/area/8011028493,Placas del cura,36.54448515,-4.9397774
Andalucia,https://www.thecrag.com/en/climbing/spain/area/1846636608,https://www.thecrag.com/en/climbing/spain/area/7160793627,Poyato de Benalaur칤a,36.59443822783,-5.27861836909
Andalucia,https://www.thecrag.com/en/climbing/spain/area/1846636608,https://www.thecrag.com/en/climbing/spain/poyato,Pe침칩n de Benadalid,36.60111423163,-5.27764328656
Andalucia,https://www.thecrag.com/en/climbing/spain/area/1846636608,https://www.thecrag.com/en/climbing/spain/puerto-del-viento,Puerto del Viento,36.81181666674,-5.02138012057
Andalucia,https://www.thecrag.com/en/climbing/spain/area/1846636608,https://www.thecrag.com/en/climbing/spain/area/2186352876,Puerto Rico,36.54351672218,-4.88599642633
Andalucia,https://www.thecrag.com/en/climbing/spain/area/1846636608,https://www.thecrag.com/en/climbing/spain/rio-de-la-venta,Rio de la Venta,36.94002620026,-4.95671336953
Andalucia,https://www.thecrag.com/en/climbing/spain/area/1846636608,https://www.thecrag.com/en/climbing/spain/san-anton,San Anton,36.60935804695,-4.6053122645
Andalucia,https://www.thecrag.com/en/climbing/spain/area/1846636608,https://www.thecrag.com/en/climbing/spain/area/4492951680,Sierra Ortegicar,36.93353848877,-4.90904664465
Andalucia,https://www.thecrag.com/en/climbing/spain/area/1846636608,https://www.thecrag.com/en/climbing/spain/area/5740637634,Teba,36.98001750364,-4.89431269069
Andalucia,https://www.thecrag.com/en/climbing/spain/area/1846636608,https://www.thecrag.com/en/climbing/spain/tocal-de-antequera,Torcal de Antequera,36.95692321477,-4.53318145537
Andalucia,https://www.thecrag.com/en/climbing/spain/area/1846636608,https://www.thecrag.com/en/climbing/spain/turon,Turon,36.8653140356,-4.87714945267
Andalucia,https://www.thecrag.com/en/climbing/spain/area/1846636608,https://www.thecrag.com/en/climbing/spain/area/2582116755,Villanueva de Cauche,36.9505044,-4.4285874
Andalucia,https://www.thecrag.com/en/climbing/spain/area/1846636608,https://www.thecrag.com/en/climbing/spain/area/1035075288,Villanueva del Rosario,36.98303866111,-4.33616056122
Andalucia,https://www.thecrag.com/en/climbing/spain/area/1846636608,https://www.thecrag.com/en/climbing/spain/area/4495991166,Villanueva del Trabuco,37.02137110046,-4.28361069355
Andalucia,https://www.thecrag.com/en/climbing/spain/area/1846636608,https://www.thecrag.com/en/climbing/spain/area/8053697211,Roc칩dromo San Pedro Alcantara,36.49294122377,-4.98764474866
Andalucia,https://www.thecrag.com/en/climbing/spain/area/1846636608,https://www.thecrag.com/en/climbing/spain/castillo-de-santa-catalina,Castillo de Santa Catalina,37.76671085,-3.7992171
Andalucia,https://www.thecrag.com/en/climbing/spain/area/1846636608,https://www.thecrag.com/en/climbing/spain/area/826288755,Cuatro Picos,37.7789103941,-3.82098373861
Andalucia,https://www.thecrag.com/en/climbing/spain/area/1846636608,https://www.thecrag.com/en/climbing/spain/area/825093786,Reguchillo,37.75161849404,-3.82794345121
Andalucia,https://www.thecrag.com/en/climbing/spain/area/1846636608,https://www.thecrag.com/en/climbing/spain/tajos-de-las-alcandoras,Tajos de las Alcandoras,37.6871430925,-3.74692813764
Andalucia,https://www.thecrag.com/en/climbing/spain/area/1846636608,https://www.thecrag.com/en/climbing/spain/area/1077923607,Oti침ar,37.67700033501,-3.75613912772
Andalucia,https://www.thecrag.com/en/climbing/spain/area/1846636608,https://www.thecrag.com/en/climbing/spain/tajos-de-las-canjorro-los-canones,El Canjorro,37.71471316434,-3.79252044584
Andalucia,https://www.thecrag.com/en/climbing/spain/area/1846636608,https://www.thecrag.com/en/climbing/spain/area/2288825253,El Front칩n,37.69517477932,-3.77879852293
Andalucia,https://www.thecrag.com/en/climbing/spain/area/1846636608,https://www.thecrag.com/en/climbing/spain/area/4295093238,El Mingo,37.71043158332,-3.7890511403
Andalucia,https://www.thecrag.com/en/climbing/spain/area/1846636608,https://www.thecrag.com/en/climbing/spain/area/2288825871,El Salto de la cabra,37.69063002129,-3.76317581957
Andalucia,https://www.thecrag.com/en/climbing/spain/area/1846636608,https://www.thecrag.com/en/climbing/spain/area/2288826339,La Cantera,37.75262324555,-3.7995580818
Aragon,https://www.thecrag.com/en/climbing/spain/aragon,https://www.thecrag.com/en/climbing/spain/huesca-area/area/9018349155,Anies,42.31151755,-0.5582632
Aragon,https://www.thecrag.com/en/climbing/spain/aragon,https://www.thecrag.com/en/climbing/spain/aguero,Mallos de Ag칲ero,42.36047030646,-0.79903639207
Aragon,https://www.thecrag.com/en/climbing/spain/aragon,https://www.thecrag.com/en/climbing/spain/aguja-de-escalete,Aguja de Escalete,42.37475640522,-0.70636760169
Aragon,https://www.thecrag.com/en/climbing/spain/aragon,https://www.thecrag.com/en/climbing/spain/alquezar,Alqu칠zar,42.17482200409,0.02954250753
Aragon,https://www.thecrag.com/en/climbing/spain/aragon,https://www.thecrag.com/en/climbing/spain/rodellar,Rodellar,42.28766795,-0.08091975
Aragon,https://www.thecrag.com/en/climbing/spain/aragon,https://www.thecrag.com/en/climbing/spain/huesca-area/area/1845407394,Vadiello,42.23413875,-0.2834013
Aragon,https://www.thecrag.com/en/climbing/spain/aragon,https://www.thecrag.com/en/climbing/spain/predicadera,Pe침a Predicadera,42.2573285,-0.25253755
Aragon,https://www.thecrag.com/en/climbing/spain/aragon,https://www.thecrag.com/en/climbing/spain/elefante-and-embalse,Elefante and Embalse,42.25773230698,-0.26781859078
Aragon,https://www.thecrag.com/en/climbing/spain/aragon,https://www.thecrag.com/en/climbing/spain/huesca-area/area/3186778356,Pe침a Rueba,42.35735672463,-0.75821997502
Aragon,https://www.thecrag.com/en/climbing/spain/aragon,https://www.thecrag.com/en/climbing/spain/foz-de-escalete,Foz de Escalete,42.37745424778,-0.71977873591
Aragon,https://www.thecrag.com/en/climbing/spain/aragon,https://www.thecrag.com/en/climbing/spain/rapun,Rap칰n,42.48794253872,-0.3695353601
Aragon,https://www.thecrag.com/en/climbing/spain/aragon,https://www.thecrag.com/en/climbing/spain/embun,Embun,42.6345367,-0.7191074
Aragon,https://www.thecrag.com/en/climbing/spain/aragon,https://www.thecrag.com/en/climbing/spain/candanchu,Candanch칰,42.7846435,-0.53595495
Aragon,https://www.thecrag.com/en/climbing/spain/aragon,https://www.thecrag.com/en/climbing/spain/huesca-area/area/1754502051,Barranco de los Meses,42.7143253,-0.53179245
Aragon,https://www.thecrag.com/en/climbing/spain/aragon,https://www.thecrag.com/en/climbing/spain/balaitus,Balaitus,42.83728303453,-0.2838337469
Aragon,https://www.thecrag.com/en/climbing/spain/aragon,https://www.thecrag.com/en/climbing/spain/bujaruelo,Bujaruelo,42.69601255094,-0.10525338484
Aragon,https://www.thecrag.com/en/climbing/spain/aragon,https://www.thecrag.com/en/climbing/spain/ordessa,Ordesa,42.6519044,-0.04231365
Aragon,https://www.thecrag.com/en/climbing/spain/aragon,https://www.thecrag.com/en/climbing/spain/valle-de-ans,Valle de Ans칩,42.87088940824,-0.81692505374
Aragon,https://www.thecrag.com/en/climbing/spain/aragon,https://www.thecrag.com/en/climbing/spain/val-de-onsera,Val de Onsera,42.23582885941,-0.34510712785
Aragon,https://www.thecrag.com/en/climbing/spain/aragon,https://www.thecrag.com/en/climbing/spain/valle-de-tena,Valle de Tena,42.7304573,-0.334094
Aragon,https://www.thecrag.com/en/climbing/spain/aragon,https://www.thecrag.com/en/climbing/spain/olvena,Olvena,42.11000297822,0.28080805151
Aragon,https://www.thecrag.com/en/climbing/spain/aragon,https://www.thecrag.com/en/climbing/spain/liguerre-de-cinca,Lig칲erre de Cinca,42.2946659,0.21484785
Aragon,https://www.thecrag.com/en/climbing/spain/aragon,https://www.thecrag.com/en/climbing/spain/pe-a-monta-esa,Pe침a Monta침esa,42.4882399817,0.20052419174
Aragon,https://www.thecrag.com/en/climbing/spain/aragon,https://www.thecrag.com/en/climbing/spain/valle-de-isabena,Valle de Is치bena,42.38921494183,0.56690917649
Aragon,https://www.thecrag.com/en/climbing/spain/aragon,https://www.thecrag.com/en/climbing/spain/baldellou,Baldellou,41.9238079,0.5526841
Aragon,https://www.thecrag.com/en/climbing/spain/aragon,https://www.thecrag.com/en/climbing/spain/montrebei,Congosto de Montrebei,42.08105895,0.6825996
Aragon,https://www.thecrag.com/en/climbing/spain/aragon,https://www.thecrag.com/en/climbing/spain/huesca-area/area/1273451298,El Molino,42.10414644598,0.48608682846
Aragon,https://www.thecrag.com/en/climbing/spain/aragon,https://www.thecrag.com/en/climbing/spain/pared-de-canelles,Pared de Canelles,41.97865321265,0.61123817644
Aragon,https://www.thecrag.com/en/climbing/spain/aragon,https://www.thecrag.com/en/climbing/spain/santa-ana,Santa Ana,41.87757376949,0.57313863731
Aragon,https://www.thecrag.com/en/climbing/spain/aragon,https://www.thecrag.com/en/climbing/spain/huesca-area/area/803322864,Castillonroi,41.88569186117,0.54977047612
Aragon,https://www.thecrag.com/en/climbing/spain/aragon,https://www.thecrag.com/en/climbing/spain/llauset,Llauset,42.58423424574,0.69240354969
Aragon,https://www.thecrag.com/en/climbing/spain/aragon,https://www.thecrag.com/en/climbing/spain/valle-de-benasque-cerler,Valle de Benasque,42.5918517,0.5863889
Aragon,https://www.thecrag.com/en/climbing/spain/aragon,https://www.thecrag.com/en/climbing/spain/huesca-area/area/8223332016,Pico Margalida,42.62518335,0.6665444
Aragon,https://www.thecrag.com/en/climbing/spain/aragon,https://www.thecrag.com/en/climbing/spain/bielsa,Foz de la Canal,42.6035724,0.24317
Aragon,https://www.thecrag.com/en/climbing/spain/aragon,https://www.thecrag.com/en/climbing/spain/huesca-area/area/1382446578,Revilla,42.59524265,0.1536598
Aragon,https://www.thecrag.com/en/climbing/spain/aragon,https://www.thecrag.com/en/climbing/spain/las-devotas,Las Devotas,42.56653580252,0.20085753219
Aragon,https://www.thecrag.com/en/climbing/spain/aragon,https://www.thecrag.com/en/climbing/spain/huesca-area/area/8041589061,Campo,42.39272184182,0.39512880403
Aragon,https://www.thecrag.com/en/climbing/spain/aragon,https://www.thecrag.com/en/climbing/spain/huesca-area/area/7313009766,Bal de Chistau,42.6074085,0.35712045
Aragon,https://www.thecrag.com/en/climbing/spain/aragon,https://www.thecrag.com/en/climbing/spain/forada-del-toscar,Foradada del Toscar,42.41498825,0.34309825
Aragon,https://www.thecrag.com/en/climbing/spain/aragon,https://www.thecrag.com/en/climbing/spain/huesca-area/area/2312492025,Arguis,42.32270429916,-0.46219371581
Aragon,https://www.thecrag.com/en/climbing/spain/aragon,https://www.thecrag.com/en/climbing/spain/huesca-area/area/2725050459,Belsu칠,42.3163165,-0.3025173
Aragon,https://www.thecrag.com/en/climbing/spain/aragon,https://www.thecrag.com/en/climbing/spain/loarre,Loarre,42.3280378,-0.6109024
Aragon,https://www.thecrag.com/en/climbing/spain/aragon,https://www.thecrag.com/en/climbing/spain/riglos,Riglos,42.3443538,-0.71228745
Aragon,https://www.thecrag.com/en/climbing/spain/aragon,https://www.thecrag.com/en/climbing/spain/valcheladas,Valcheladas,42.04293748895,0.04133575817
Aragon,https://www.thecrag.com/en/climbing/spain/aragon,https://www.thecrag.com/en/climbing/spain/huesca-area/area/4019431815,Pico Aspe,42.7625503,-0.56566075
Aragon,https://www.thecrag.com/en/climbing/spain/aragon,https://www.thecrag.com/en/climbing/spain/huesca-area/area/8769660138,Gabasa,42.00734908281,0.41730070337
Aragon,https://www.thecrag.com/en/climbing/spain/aragon,https://www.thecrag.com/en/climbing/spain/huesca-area/area/4020422346,Zurita,41.99043492416,0.44212269139
Aragon,https://www.thecrag.com/en/climbing/spain/aragon,https://www.thecrag.com/en/climbing/spain/huesca-area/area/4035681660,Gratal,42.3032255,-0.46314935
Aragon,https://www.thecrag.com/en/climbing/spain/aragon,https://www.thecrag.com/en/climbing/spain/huesca-area/area/4045844112,Tobazo,42.76962923765,-0.5279110643
Aragon,https://www.thecrag.com/en/climbing/spain/aragon,https://www.thecrag.com/en/climbing/spain/huesca-area/area/4046114241,Lizara,42.76545145,-0.618975
Aragon,https://www.thecrag.com/en/climbing/spain/aragon,https://www.thecrag.com/en/climbing/spain/huesca-area/area/4393342365,San Cristobal,42.49635317253,0.49475201731
Aragon,https://www.thecrag.com/en/climbing/spain/aragon,https://www.thecrag.com/en/climbing/spain/huesca-area/area/4426087437,San Pelegr칤n,42.19942561391,0.01847936022
Aragon,https://www.thecrag.com/en/climbing/spain/aragon,https://www.thecrag.com/en/climbing/spain/huesca-area/area/4612293459,Pico del 츼guila,42.3116865,-0.41355
Aragon,https://www.thecrag.com/en/climbing/spain/aragon,https://www.thecrag.com/en/climbing/spain/huesca-area/area/4728390738,Nueno,42.29344945,-0.4258237
Aragon,https://www.thecrag.com/en/climbing/spain/aragon,https://www.thecrag.com/en/climbing/spain/huesca-area/area/5236491024,Jurassic Wall,42.38060384724,0.7405368086
Aragon,https://www.thecrag.com/en/climbing/spain/aragon,https://www.thecrag.com/en/climbing/spain/huesca-area/area/7319153223,Tunel de Bielsa boca sur,42.71476906267,0.20107175019
Aragon,https://www.thecrag.com/en/climbing/spain/aragon,https://www.thecrag.com/en/climbing/spain/huesca-area/area/5257824897,Pocilcas,42.672377,0.2138482
Aragon,https://www.thecrag.com/en/climbing/spain/aragon,https://www.thecrag.com/en/climbing/spain/huesca-area/area/5257871952,La Pella,42.62502663833,0.23282743053
Aragon,https://www.thecrag.com/en/climbing/spain/aragon,https://www.thecrag.com/en/climbing/spain/huesca-area/area/5257899243,La Enclusa,42.64225715439,0.17390968658
Aragon,https://www.thecrag.com/en/climbing/spain/aragon,https://www.thecrag.com/en/climbing/spain/huesca-area/area/5277424590,Los Pe침ones del Tormo,42.50299968422,0.17670264555
Aragon,https://www.thecrag.com/en/climbing/spain/aragon,https://www.thecrag.com/en/climbing/spain/huesca-area/area/5497502439,Fosado,42.45867780325,0.2464810048
Aragon,https://www.thecrag.com/en/climbing/spain/aragon,https://www.thecrag.com/en/climbing/spain/huesca-area/area/5500998087,Oncins,42.47112703168,0.21386740506
Aragon,https://www.thecrag.com/en/climbing/spain/aragon,https://www.thecrag.com/en/climbing/spain/huesca-area/area/6521917776,Oto,42.60073512646,-0.12677589757
Aragon,https://www.thecrag.com/en/climbing/spain/aragon,https://www.thecrag.com/en/climbing/spain/huesca-area/area/5507052516,Broto,42.60548410462,-0.12875356323
Aragon,https://www.thecrag.com/en/climbing/spain/aragon,https://www.thecrag.com/en/climbing/spain/huesca-area/area/5593100007,El Escondite,42.34750245,0.7399579
Aragon,https://www.thecrag.com/en/climbing/spain/aragon,https://www.thecrag.com/en/climbing/spain/huesca-area/area/5762068872,Mallo Acherito,42.89073995,-0.7369225
Aragon,https://www.thecrag.com/en/climbing/spain/aragon,https://www.thecrag.com/en/climbing/spain/huesca-area/area/5835818076,Alpargateros,42.06147063034,0.28429484676
Aragon,https://www.thecrag.com/en/climbing/spain/aragon,https://www.thecrag.com/en/climbing/spain/huesca-area/area/6067130127,Foz de Salinas,42.41030258872,-0.81161442091
Aragon,https://www.thecrag.com/en/climbing/spain/aragon,https://www.thecrag.com/en/climbing/spain/huesca-area/area/6339846576,La espluga,42.60245272225,0.24074055384
Aragon,https://www.thecrag.com/en/climbing/spain/aragon,https://www.thecrag.com/en/climbing/spain/huesca-area/area/5332021185,Santorens,42.35846913596,0.72622128142
Aragon,https://www.thecrag.com/en/climbing/spain/aragon,https://www.thecrag.com/en/climbing/spain/huesca-area/area/6342566964,Cova de la Vella,42.36523880103,0.72620881733
Aragon,https://www.thecrag.com/en/climbing/spain/aragon,https://www.thecrag.com/en/climbing/spain/huesca-area/area/7859820204,Baserca,42.59121982054,0.75626070003
Aragon,https://www.thecrag.com/en/climbing/spain/aragon,https://www.thecrag.com/en/climbing/spain/huesca-area/area/8465698830,Selva de Oza,42.85082663627,-0.70634963917
Aragon,https://www.thecrag.com/en/climbing/spain/aragon,https://www.thecrag.com/en/climbing/spain/huesca-area/area/9496335126,Pe침a Foratata,42.1361095,-0.1256604
Aragon,https://www.thecrag.com/en/climbing/spain/aragon,https://www.thecrag.com/en/climbing/spain/huesca-area/area/9740939412,Villan칰a,42.695943,-0.5280383
Aragon,https://www.thecrag.com/en/climbing/spain/aragon,https://www.thecrag.com/en/climbing/spain/huesca-area/area/9852741297,Pico del Aguila cara norte,42.1361095,-0.1256604
Aragon,https://www.thecrag.com/en/climbing/spain/aragon,https://www.thecrag.com/en/climbing/spain/aragon/area/9221016222,Anento,41.07371505,-1.324498
Aragon,https://www.thecrag.com/en/climbing/spain/aragon,https://www.thecrag.com/en/climbing/spain/aldehuela-de-liestos,Aldehuela de Liestos,41.06389184066,-1.70123486413
Aragon,https://www.thecrag.com/en/climbing/spain/aragon,https://www.thecrag.com/en/climbing/spain/aragon/area/4318046349,Almonacid de la Cuba,41.27971155,-0.790504
Aragon,https://www.thecrag.com/en/climbing/spain/aragon,https://www.thecrag.com/en/climbing/spain/aragon/area/8264543628,Biota,42.2712748,-1.16471745
Aragon,https://www.thecrag.com/en/climbing/spain/aragon,https://www.thecrag.com/en/climbing/spain/aragon/area/3382141854,Calatorao,41.52761055,-1.3399796
Aragon,https://www.thecrag.com/en/climbing/spain/aragon,https://www.thecrag.com/en/climbing/spain/calcena,Calcena,41.6475889,-1.722913
Aragon,https://www.thecrag.com/en/climbing/spain/aragon,https://www.thecrag.com/en/climbing/spain/aragon/area/5544234627,Caravacas,41.62517714089,-1.50682007441
Aragon,https://www.thecrag.com/en/climbing/spain/aragon,https://www.thecrag.com/en/climbing/spain/el-buste,El Buste,41.88022005,-1.59942855
Aragon,https://www.thecrag.com/en/climbing/spain/aragon,https://www.thecrag.com/en/climbing/spain/aragon/area/6426547026,El Pe침ueco,41.5197557,-1.50868125
Aragon,https://www.thecrag.com/en/climbing/spain/aragon,https://www.thecrag.com/en/climbing/spain/embid-noguerilla,Embid de la Ribera,41.4187716,-1.5926077
Aragon,https://www.thecrag.com/en/climbing/spain/aragon,https://www.thecrag.com/en/climbing/spain/embid-de-ariza,Embid de Ariza,41.38532805,-1.9764318
Aragon,https://www.thecrag.com/en/climbing/spain/aragon,https://www.thecrag.com/en/climbing/spain/huermeda,Huermeda,41.38442508338,-1.61474203192
Aragon,https://www.thecrag.com/en/climbing/spain/aragon,https://www.thecrag.com/en/climbing/spain/aragon/area/3802237296,Illueca,41.53598588106,-1.63271362105
Aragon,https://www.thecrag.com/en/climbing/spain/aragon,https://www.thecrag.com/en/climbing/spain/jaraba,Jaraba,41.1794279784,-1.89142243609
Aragon,https://www.thecrag.com/en/climbing/spain/aragon,https://www.thecrag.com/en/climbing/spain/jaulin,Jaul칤n,41.45266997533,-0.97887846067
Aragon,https://www.thecrag.com/en/climbing/spain/aragon,https://www.thecrag.com/en/climbing/spain/la-pueble-de-alborton,La Puebla de Albort칩n,41.3754246,-0.8631648
Aragon,https://www.thecrag.com/en/climbing/spain/aragon,https://www.thecrag.com/en/climbing/spain/aragon/area/9659274831,Manchones,41.1505176,-1.46535015
Aragon,https://www.thecrag.com/en/climbing/spain/aragon,https://www.thecrag.com/en/climbing/spain/mezalocha,Mezalocha,41.42363832227,-1.08314848126
Aragon,https://www.thecrag.com/en/climbing/spain/aragon,https://www.thecrag.com/en/climbing/spain/morata-de-jalon,Las Torcas de Chodes,41.49321884672,-1.45817788455
Aragon,https://www.thecrag.com/en/climbing/spain/aragon,https://www.thecrag.com/en/climbing/spain/aragon/area/3990919587,Ojo del Canal,41.6224992758,-0.90490548051
Aragon,https://www.thecrag.com/en/climbing/spain/aragon,https://www.thecrag.com/en/climbing/spain/requijada,Requijada,41.1855134263,-1.76793732063
Aragon,https://www.thecrag.com/en/climbing/spain/aragon,https://www.thecrag.com/en/climbing/spain/ricla,Ricla,41.50939620224,-1.40239626618
Aragon,https://www.thecrag.com/en/climbing/spain/aragon,https://www.thecrag.com/en/climbing/spain/aragon/area/3810864840,Santuario del Moncayo,41.79083095,-1.8177458
Aragon,https://www.thecrag.com/en/climbing/spain/aragon,https://www.thecrag.com/en/climbing/spain/torralba-de-los-frailes,Torralba de Los Frailes,41.02897805441,-1.6886800717
Aragon,https://www.thecrag.com/en/climbing/spain/aragon,https://www.thecrag.com/en/climbing/spain/tosos,Tosos,41.31534230685,-1.07095229981
Aragon,https://www.thecrag.com/en/climbing/spain/aragon,https://www.thecrag.com/en/climbing/spain/trasobares,Trasobares,41.64338205,-1.6430547
Aragon,https://www.thecrag.com/en/climbing/spain/aragon,https://www.thecrag.com/en/climbing/spain/aragon/area/3990956697,Parque Grande Jos칠 Antonio Labordeta,41.63321622762,-0.89537932793
Aragon,https://www.thecrag.com/en/climbing/spain/aragon,https://www.thecrag.com/en/climbing/spain/aragon/area/4886901699,Parque de la Memoria,41.63401660095,-0.87929244388
Aragon,https://www.thecrag.com/en/climbing/spain/aragon,https://www.thecrag.com/en/climbing/spain/aragon/area/3995778021,Pinares de Venecia,41.62258846322,-0.9011121451
Aragon,https://www.thecrag.com/en/climbing/spain/aragon,https://www.thecrag.com/en/climbing/spain/aragon/area/4559267463,Purujosa,41.68301265,-1.763121
Aragon,https://www.thecrag.com/en/climbing/spain/aragon,https://www.thecrag.com/en/climbing/spain/valencia-cuenca-area/albarracin,Albarrac칤n,40.39892722238,-1.41818170142
Aragon,https://www.thecrag.com/en/climbing/spain/aragon,https://www.thecrag.com/en/climbing/spain/aragon/area/836165652,Alca침iz,41.07828628673,-0.13125427846
Aragon,https://www.thecrag.com/en/climbing/spain/aragon,https://www.thecrag.com/en/climbing/spain/aragon/area/8283321840,Alfambra,40.5716862426,-1.01616793763
Aragon,https://www.thecrag.com/en/climbing/spain/aragon,https://www.thecrag.com/en/climbing/spain/aliaga,Aliaga,40.6741361,-0.69988835
Aragon,https://www.thecrag.com/en/climbing/spain/aragon,https://www.thecrag.com/en/climbing/spain/alto-mijares,Alto Mijares,40.15300933145,-0.69774620093
Aragon,https://www.thecrag.com/en/climbing/spain/aragon,https://www.thecrag.com/en/climbing/spain/beceite-penya-galera,Beceite - Penya Galera,40.83300395,0.18299085
Aragon,https://www.thecrag.com/en/climbing/spain/aragon,https://www.thecrag.com/en/climbing/spain/aragon/area/2794102500,Bezas,40.34176278974,-1.33205993216
Aragon,https://www.thecrag.com/en/climbing/spain/aragon,https://www.thecrag.com/en/climbing/spain/castellote,Castellote,40.80113261722,-0.31553484977
Aragon,https://www.thecrag.com/en/climbing/spain/aragon,https://www.thecrag.com/en/climbing/spain/cedrillas,Cedrillas,40.43675589058,-0.8515925914
Aragon,https://www.thecrag.com/en/climbing/spain/aragon,https://www.thecrag.com/en/climbing/spain/cuatrineros,Cuatrineros,40.81339955598,-0.78430752495
Aragon,https://www.thecrag.com/en/climbing/spain/aragon,https://www.thecrag.com/en/climbing/spain/doca-de-sant-miguel,Doca de Sant Miguel,40.82489931286,0.17946694804
Aragon,https://www.thecrag.com/en/climbing/spain/aragon,https://www.thecrag.com/en/climbing/spain/el-tranko,El Tranko,40.24409716385,-1.21837254259
Aragon,https://www.thecrag.com/en/climbing/spain/aragon,https://www.thecrag.com/en/climbing/spain/embalse-de-santloea,Embalse de Santolea,40.7664985,-0.3200338
Aragon,https://www.thecrag.com/en/climbing/spain/aragon,https://www.thecrag.com/en/climbing/spain/aragon/area/4225344612,Huesa del Com칰n,41.00774712446,-0.92052265882
Aragon,https://www.thecrag.com/en/climbing/spain/aragon,https://www.thecrag.com/en/climbing/spain/aragon/area/9681481029,Jabaloyas,40.24877893544,-1.38149295467
Aragon,https://www.thecrag.com/en/climbing/spain/aragon,https://www.thecrag.com/en/climbing/spain/ladronan,Ladru침치n,40.74142031079,-0.38669251923
Aragon,https://www.thecrag.com/en/climbing/spain/aragon,https://www.thecrag.com/en/climbing/spain/organo-de-montoro,Organo de Montoro,40.74109411356,-0.521705114
Aragon,https://www.thecrag.com/en/climbing/spain/aragon,https://www.thecrag.com/en/climbing/spain/pantano-de-arquil-san-blas,Pantano de Arquil - San Blas,40.36056652599,-1.18956795754
Aragon,https://www.thecrag.com/en/climbing/spain/aragon,https://www.thecrag.com/en/climbing/spain/pena-del-macho,Pena del Macho,40.35927729024,-1.08374809394
Aragon,https://www.thecrag.com/en/climbing/spain/aragon,https://www.thecrag.com/en/climbing/spain/roques-del-mas-mut,Roques del Mas Mut,40.75500958758,0.01655538433
Aragon,https://www.thecrag.com/en/climbing/spain/aragon,https://www.thecrag.com/en/climbing/spain/simas-de-valdecebro,Simas de Valdecebro,40.3650723,-1.0724391
Aragon,https://www.thecrag.com/en/climbing/spain/aragon,https://www.thecrag.com/en/climbing/spain/aragon/area/5222484450,Frias de Albarrac칤n,40.3401447955,-1.61005071812
